title,longitude,latitude,coord_type,metrotype,type2,category,category_en,url,ak,geotable_id,poiID
"地安门东",116.40435,39.9398,38,1,2,公交,bus,http://bus.bj.bendibao.com/zhandian/station289003.htm,Ow5fqi6DQXmgD5PGSB7QBdHF,106990,934137560
"地安门内",116.4027,39.93921,11,3,2,公交,bus,http://bus.bj.bendibao.com/zhandian/station288833.htm,Ow5fqi6DQXmgD5PGSB7QBdHF,106990,934137574
"地安门外",116.40257,39.94139,37,3,2,公交,bus,http://bus.bj.bendibao.com/zhandian/station289537.htm,Ow5fqi6DQXmgD5PGSB7QBdHF,106990,934137590
"南锣鼓巷",116.40954,39.94013,15,3,2,公交,bus,http://bus.bj.bendibao.com/zhandian/station295202.htm,Ow5fqi6DQXmgD5PGSB7QBdHF,106990,934137604
"景山后街",116.40187,39.93473,40,2,2,公交,bus,http://bus.bj.bendibao.com/zhandian/station288832.htm,Ow5fqi6DQXmgD5PGSB7QBdHF,106990,934137612
"锣鼓巷",116.41106,39.93981,14,3,2,公交,bus,http://bus.bj.bendibao.com/zhandian/station289002.htm,Ow5fqi6DQXmgD5PGSB7QBdHF,106990,934137624
"景山东街",116.40588,39.93337,39,1,2,公交,bus,http://bus.bj.bendibao.com/zhandian/station289926.htm,Ow5fqi6DQXmgD5PGSB7QBdHF,106990,934137630
"北海北",116.39783,39.93997,17,3,2,公交,bus,http://bus.bj.bendibao.com/zhandian/station295201.htm,Ow5fqi6DQXmgD5PGSB7QBdHF,106990,934137644
"北海北门",116.39768,39.93974,42,2,2,公交,bus,http://bus.bj.bendibao.com/zhandian/station289004.htm,Ow5fqi6DQXmgD5PGSB7QBdHF,106990,934137658
"东黄城根北口",116.41214,39.93881,16,3,2,公交,bus,http://bus.bj.bendibao.com/zhandian/station289534.htm,Ow5fqi6DQXmgD5PGSB7QBdHF,106990,934137670
"亮果厂",116.41238,39.9357,41,2,2,公交,bus,http://bus.bj.bendibao.com/zhandian/station289533.htm,Ow5fqi6DQXmgD5PGSB7QBdHF,106990,934137686
"鼓楼(南)",116.4024,39.94506,19,2,2,公交,bus,http://bus.bj.bendibao.com/zhandian/station288834.htm,Ow5fqi6DQXmgD5PGSB7QBdHF,106990,934137700
"鼓楼",116.40238,39.94506,45,1,2,公交,bus,http://bus.bj.bendibao.com/zhandian/station292396.htm,Ow5fqi6DQXmgD5PGSB7QBdHF,106990,934137718
"西板桥",116.39997,39.93279,18,1,2,公交,bus,http://bus.bj.bendibao.com/zhandian/station288831.htm,Ow5fqi6DQXmgD5PGSB7QBdHF,106990,934137731
"宽街路口南",116.41532,39.93928,44,3,2,公交,bus,http://bus.bj.bendibao.com/zhandian/station288812.htm,Ow5fqi6DQXmgD5PGSB7QBdHF,106990,934137743
"景山东门",116.40603,39.93017,4,3,2,公交,bus,http://bus.bj.bendibao.com/zhandian/station289925.htm,Ow5fqi6DQXmgD5PGSB7QBdHF,106990,934137757
"宝钞胡同",116.4057,39.94716,29,3,2,公交,bus,http://bus.bj.bendibao.com/zhandian/station289910.htm,Ow5fqi6DQXmgD5PGSB7QBdHF,106990,934137769
"宽街路口东",116.41592,39.9398,3,2,2,公交,bus,http://bus.bj.bendibao.com/zhandian/station289001.htm,Ow5fqi6DQXmgD5PGSB7QBdHF,106990,934137780
"北兵马司",116.41514,39.94288,28,3,2,公交,bus,http://bus.bj.bendibao.com/zhandian/station289894.htm,Ow5fqi6DQXmgD5PGSB7QBdHF,106990,934137792
"故宫",116.40209,39.92973,6,1,2,公交,bus,http://bus.bj.bendibao.com/zhandian/station289866.htm,Ow5fqi6DQXmgD5PGSB7QBdHF,106990,934137800
"大佛寺",116.41552,39.9342,31,2,2,公交,bus,http://bus.bj.bendibao.com/zhandian/station289895.htm,Ow5fqi6DQXmgD5PGSB7QBdHF,106990,934137813
"沙滩路口西",116.41158,39.93064,5,1,2,公交,bus,http://bus.bj.bendibao.com/zhandian/station289865.htm,Ow5fqi6DQXmgD5PGSB7QBdHF,106990,934137824
"沙滩路口北",116.41316,39.93149,30,2,2,公交,bus,http://bus.bj.bendibao.com/zhandian/station289532.htm,Ow5fqi6DQXmgD5PGSB7QBdHF,106990,934137833
"小经厂",116.41127,39.9472,8,2,2,公交,bus,http://bus.bj.bendibao.com/zhandian/station289909.htm,Ow5fqi6DQXmgD5PGSB7QBdHF,106990,934137844
"东官房",116.39178,39.93951,34,2,2,公交,bus,http://bus.bj.bendibao.com/zhandian/station289005.htm,Ow5fqi6DQXmgD5PGSB7QBdHF,106990,934137853
"交道口南",116.41497,39.94531,7,3,2,公交,bus,http://bus.bj.bendibao.com/zhandian/station289836.htm,Ow5fqi6DQXmgD5PGSB7QBdHF,106990,934137865
"北池子北口",116.40895,39.92886,33,3,2,公交,bus,http://bus.bj.bendibao.com/zhandian/station294864.htm,Ow5fqi6DQXmgD5PGSB7QBdHF,106990,934137875
"沙滩路口南",116.41275,39.92957,10,1,2,公交,bus,http://bus.bj.bendibao.com/zhandian/station288811.htm,Ow5fqi6DQXmgD5PGSB7QBdHF,106990,934137884
"铸钟厂",116.39744,39.94842,36,2,2,公交,bus,http://bus.bj.bendibao.com/zhandian/station288835.htm,Ow5fqi6DQXmgD5PGSB7QBdHF,106990,934137899
"美术馆北",116.41727,39.93213,9,1,2,公交,bus,http://bus.bj.bendibao.com/zhandian/station289891.htm,Ow5fqi6DQXmgD5PGSB7QBdHF,106990,934137907
"美术馆",116.41604,39.9306,35,2,2,公交,bus,http://bus.bj.bendibao.com/zhandian/station289875.htm,Ow5fqi6DQXmgD5PGSB7QBdHF,106990,934137915
"交道口东",116.41558,39.94708,30,2,2,公交,bus,http://bus.bj.bendibao.com/zhandian/station289908.htm,Ow5fqi6DQXmgD5PGSB7QBdHF,106990,934137931
"北海",116.39515,39.92878,6,2,2,公交,bus,http://bus.bj.bendibao.com/zhandian/station289867.htm,Ow5fqi6DQXmgD5PGSB7QBdHF,106990,934137941
"北海(南)",116.39744,39.92761,29,2,2,公交,bus,http://bus.bj.bendibao.com/zhandian/station288830.htm,Ow5fqi6DQXmgD5PGSB7QBdHF,106990,934137955
"美术馆东",116.41804,39.93059,5,1,2,公交,bus,http://bus.bj.bendibao.com/zhandian/station289864.htm,Ow5fqi6DQXmgD5PGSB7QBdHF,106990,934137969
"张自忠路",116.42188,39.93976,32,1,2,公交,bus,http://bus.bj.bendibao.com/zhandian/station289000.htm,Ow5fqi6DQXmgD5PGSB7QBdHF,106990,934137977
"厂桥路口东",116.38743,39.9392,8,3,2,公交,bus,http://bus.bj.bendibao.com/zhandian/station289006.htm,Ow5fqi6DQXmgD5PGSB7QBdHF,106990,934138010
"北京妇产医院",116.41287,39.9266,31,1,2,公交,bus,http://bus.bj.bendibao.com/zhandian/station288810.htm,Ow5fqi6DQXmgD5PGSB7QBdHF,106990,934138029
"方家胡同",116.41485,39.94997,7,3,2,公交,bus,http://bus.bj.bendibao.com/zhandian/station289835.htm,Ow5fqi6DQXmgD5PGSB7QBdHF,106990,934138039
"厂桥路口西",116.38619,39.9391,35,3,2,公交,bus,http://bus.bj.bendibao.com/zhandian/station289020.htm,Ow5fqi6DQXmgD5PGSB7QBdHF,106990,934138054
"魏家胡同",116.42368,39.93813,10,1,2,公交,bus,http://bus.bj.bendibao.com/zhandian/station289903.htm,Ow5fqi6DQXmgD5PGSB7QBdHF,106990,934138070
"德内甘水桥",116.39414,39.95073,33,1,2,公交,bus,http://bus.bj.bendibao.com/zhandian/station288836.htm,Ow5fqi6DQXmgD5PGSB7QBdHF,106990,934138082
"东四十二条",116.4235,39.94151,9,3,2,公交,bus,http://bus.bj.bendibao.com/zhandian/station288999.htm,Ow5fqi6DQXmgD5PGSB7QBdHF,106990,934138105
"刘海胡同",116.38606,39.94386,37,2,2,公交,bus,http://bus.bj.bendibao.com/zhandian/station289499.htm,Ow5fqi6DQXmgD5PGSB7QBdHF,106990,934138122
"钱粮胡同",116.42384,39.93382,12,1,2,公交,bus,http://bus.bj.bendibao.com/zhandian/station289902.htm,Ow5fqi6DQXmgD5PGSB7QBdHF,106990,934138143
"北新桥路口西",116.4216,39.94707,36,1,2,公交,bus,http://bus.bj.bendibao.com/zhandian/station289907.htm,Ow5fqi6DQXmgD5PGSB7QBdHF,106990,934138167
"后库",116.38559,39.93394,11,3,2,公交,bus,http://bus.bj.bendibao.com/zhandian/station289036.htm,Ow5fqi6DQXmgD5PGSB7QBdHF,106990,934138182
"北新桥路口南",116.42333,39.94563,21,1,2,公交,bus,http://bus.bj.bendibao.com/zhandian/station289904.htm,Ow5fqi6DQXmgD5PGSB7QBdHF,106990,934138202
"鼓楼桥南",116.40022,39.95459,47,1,2,公交,bus,http://bus.bj.bendibao.com/zhandian/station289535.htm,Ow5fqi6DQXmgD5PGSB7QBdHF,106990,934138227
"北京四中",116.38353,39.93726,20,3,2,公交,bus,http://bus.bj.bendibao.com/zhandian/station289395.htm,Ow5fqi6DQXmgD5PGSB7QBdHF,106990,934138243
"灯市西口",116.41738,39.92537,46,1,2,公交,bus,http://bus.bj.bendibao.com/zhandian/station289876.htm,Ow5fqi6DQXmgD5PGSB7QBdHF,106990,934138259
"安定门内",116.41471,39.95338,24,3,2,公交,bus,http://bus.bj.bendibao.com/zhandian/station289834.htm,Ow5fqi6DQXmgD5PGSB7QBdHF,106990,934138267
"北新桥",116.42327,39.9472,49,3,2,公交,bus,http://bus.bj.bendibao.com/zhandian/station295192.htm,Ow5fqi6DQXmgD5PGSB7QBdHF,106990,934138278
"东四",116.42391,39.93069,22,1,2,公交,bus,http://bus.bj.bendibao.com/zhandian/station295193.htm,Ow5fqi6DQXmgD5PGSB7QBdHF,106990,934138288
"北新桥路口北",116.42325,39.9479,48,3,2,公交,bus,http://bus.bj.bendibao.com/zhandian/station288998.htm,Ow5fqi6DQXmgD5PGSB7QBdHF,106990,934138296
"府右街",116.38826,39.92723,26,1,2,公交,bus,http://bus.bj.bendibao.com/zhandian/station289034.htm,Ow5fqi6DQXmgD5PGSB7QBdHF,106990,934138306
"鼓楼大街",116.39996,39.95536,51,1,2,公交,bus,http://bus.bj.bendibao.com/zhandian/station295149.htm,Ow5fqi6DQXmgD5PGSB7QBdHF,106990,934138322
"西安门",116.38667,39.9287,25,2,2,公交,bus,http://bus.bj.bendibao.com/zhandian/station289035.htm,Ow5fqi6DQXmgD5PGSB7QBdHF,106990,934138335
"蒋养房",116.3857,39.94748,50,2,2,公交,bus,http://bus.bj.bendibao.com/zhandian/station289498.htm,Ow5fqi6DQXmgD5PGSB7QBdHF,106990,934138348
"东四路口南",116.42399,39.92983,28,2,2,公交,bus,http://bus.bj.bendibao.com/zhandian/station289901.htm,Ow5fqi6DQXmgD5PGSB7QBdHF,106990,934138361
"东四路口东",116.4246,39.93065,3,1,2,公交,bus,http://bus.bj.bendibao.com/zhandian/station289863.htm,Ow5fqi6DQXmgD5PGSB7QBdHF,106990,934138384
"北京三十九中学",116.38366,39.93232,27,3,2,公交,bus,http://bus.bj.bendibao.com/zhandian/station289037.htm,Ow5fqi6DQXmgD5PGSB7QBdHF,106990,934138396
"故宫东门",116.40932,39.92154,52,1,2,公交,bus,http://bus.bj.bendibao.com/zhandian/station294865.htm,Ow5fqi6DQXmgD5PGSB7QBdHF,106990,934138402
"安定门",116.41469,39.95441,48,2,2,公交,bus,http://bus.bj.bendibao.com/zhandian/station290052.htm,Ow5fqi6DQXmgD5PGSB7QBdHF,106990,934138408
"安定门西",116.41244,39.95527,23,2,2,公交,bus,http://bus.bj.bendibao.com/zhandian/station289408.htm,Ow5fqi6DQXmgD5PGSB7QBdHF,106990,934138418
"鼓楼桥西",116.39689,39.95527,47,1,2,公交,bus,http://bus.bj.bendibao.com/zhandian/station289409.htm,Ow5fqi6DQXmgD5PGSB7QBdHF,106990,934138429
"故宫西门(西华门)",116.39781,39.92109,22,2,2,公交,bus,http://bus.bj.bendibao.com/zhandian/station294863.htm,Ow5fqi6DQXmgD5PGSB7QBdHF,106990,934138442
"果子市",116.38939,39.953,50,3,2,公交,bus,http://bus.bj.bendibao.com/zhandian/station288837.htm,Ow5fqi6DQXmgD5PGSB7QBdHF,106990,934138453
"东华门",116.4131,39.92097,25,3,2,公交,bus,http://bus.bj.bendibao.com/zhandian/station288809.htm,Ow5fqi6DQXmgD5PGSB7QBdHF,106990,934138462
"东安门大街西口",116.41537,39.92163,49,1,2,公交,bus,http://bus.bj.bendibao.com/zhandian/station294874.htm,Ow5fqi6DQXmgD5PGSB7QBdHF,106990,934138474
"西华门",116.39786,39.9205,24,1,2,公交,bus,http://bus.bj.bendibao.com/zhandian/station288829.htm,Ow5fqi6DQXmgD5PGSB7QBdHF,106990,934138482
"平安里路口东",116.38,39.93859,52,1,2,公交,bus,http://bus.bj.bendibao.com/zhandian/station289839.htm,Ow5fqi6DQXmgD5PGSB7QBdHF,106990,934138494
"地兴居",116.4062,39.95785,28,3,2,公交,bus,http://bus.bj.bendibao.com/zhandian/station289244.htm,Ow5fqi6DQXmgD5PGSB7QBdHF,106990,934138515
"西黄城根",116.3838,39.92797,51,2,2,公交,bus,http://bus.bj.bendibao.com/zhandian/station289597.htm,Ow5fqi6DQXmgD5PGSB7QBdHF,106990,934138527
"平安里路口南",116.37957,39.93752,27,3,2,公交,bus,http://bus.bj.bendibao.com/zhandian/station289007.htm,Ow5fqi6DQXmgD5PGSB7QBdHF,106990,934138538
"德胜门内",116.38616,39.9518,4,1,2,公交,bus,http://bus.bj.bendibao.com/zhandian/station289497.htm,Ow5fqi6DQXmgD5PGSB7QBdHF,106990,934138550
"平安里路口北",116.37945,39.93978,30,2,2,公交,bus,http://bus.bj.bendibao.com/zhandian/station289783.htm,Ow5fqi6DQXmgD5PGSB7QBdHF,106990,934138558
"六铺炕",116.39955,39.95779,3,3,2,公交,bus,http://bus.bj.bendibao.com/zhandian/station289243.htm,Ow5fqi6DQXmgD5PGSB7QBdHF,106990,934138566
"平安里",116.37934,39.93975,29,2,2,公交,bus,http://bus.bj.bendibao.com/zhandian/station295172.htm,Ow5fqi6DQXmgD5PGSB7QBdHF,106990,934138581
"西四路口东",116.38164,39.93026,39,1,2,公交,bus,http://bus.bj.bendibao.com/zhandian/station289868.htm,Ow5fqi6DQXmgD5PGSB7QBdHF,106990,934138600
"大红罗厂西口",116.37969,39.93463,14,2,2,公交,bus,http://bus.bj.bendibao.com/zhandian/station289008.htm,Ow5fqi6DQXmgD5PGSB7QBdHF,106990,934138615
"安定门东站",116.41686,39.95619,38,2,2,公交,bus,http://bus.bj.bendibao.com/zhandian/station289962.htm,Ow5fqi6DQXmgD5PGSB7QBdHF,106990,934138628
"灯市东口",116.4241,39.92541,13,2,2,公交,bus,http://bus.bj.bendibao.com/zhandian/station289900.htm,Ow5fqi6DQXmgD5PGSB7QBdHF,106990,934138642
"钟楼北桥北",116.40176,39.95849,41,2,2,公交,bus,http://bus.bj.bendibao.com/zhandian/station289776.htm,Ow5fqi6DQXmgD5PGSB7QBdHF,106990,934138653
"护国寺",116.3793,39.94298,17,3,2,公交,bus,http://bus.bj.bendibao.com/zhandian/station289153.htm,Ow5fqi6DQXmgD5PGSB7QBdHF,106990,934138665
"国子监",116.42306,39.95313,40,3,2,公交,bus,http://bus.bj.bendibao.com/zhandian/station288997.htm,Ow5fqi6DQXmgD5PGSB7QBdHF,106990,934138678
"锡拉胡同",116.41318,39.91948,16,1,2,公交,bus,http://bus.bj.bendibao.com/zhandian/station289531.htm,Ow5fqi6DQXmgD5PGSB7QBdHF,106990,934138684
"平安里路口西",116.3785,39.9385,43,2,2,公交,bus,http://bus.bj.bendibao.com/zhandian/station289840.htm,Ow5fqi6DQXmgD5PGSB7QBdHF,106990,934138701
"灯市口",116.42415,39.92487,19,3,2,公交,bus,http://bus.bj.bendibao.com/zhandian/station295194.htm,Ow5fqi6DQXmgD5PGSB7QBdHF,106990,934138721
"安定门外",116.41395,39.95783,42,3,2,公交,bus,http://bus.bj.bendibao.com/zhandian/station289245.htm,Ow5fqi6DQXmgD5PGSB7QBdHF,106990,934138738
"东四十条",116.43141,39.93972,18,1,2,公交,bus,http://bus.bj.bendibao.com/zhandian/station289934.htm,Ow5fqi6DQXmgD5PGSB7QBdHF,106990,934138752
"西四丁字街",116.38152,39.92857,46,1,2,公交,bus,http://bus.bj.bendibao.com/zhandian/station289371.htm,Ow5fqi6DQXmgD5PGSB7QBdHF,106990,934138774
"德胜门南站",116.3872,39.95423,21,1,2,公交,bus,http://bus.bj.bendibao.com/zhandian/station288849.htm,Ow5fqi6DQXmgD5PGSB7QBdHF,106990,934138783
"西四路口北",116.37988,39.93068,44,1,2,公交,bus,http://bus.bj.bendibao.com/zhandian/station289019.htm,Ow5fqi6DQXmgD5PGSB7QBdHF,106990,934138792
"后九条",116.39394,39.95771,20,3,2,公交,bus,http://bus.bj.bendibao.com/zhandian/station289242.htm,Ow5fqi6DQXmgD5PGSB7QBdHF,106990,934138811
"地坛西门",116.4146,39.95808,15,1,2,公交,bus,http://bus.bj.bendibao.com/zhandian/station289092.htm,Ow5fqi6DQXmgD5PGSB7QBdHF,106990,934138822
"雍和宫",116.42308,39.95406,41,3,2,公交,bus,http://bus.bj.bendibao.com/zhandian/station288996.htm,Ow5fqi6DQXmgD5PGSB7QBdHF,106990,934138833
"西四",116.37995,39.93004,14,2,2,公交,bus,http://bus.bj.bendibao.com/zhandian/station295173.htm,Ow5fqi6DQXmgD5PGSB7QBdHF,106990,934138844
"新街口南",116.37923,39.94609,40,3,2,公交,bus,http://bus.bj.bendibao.com/zhandian/station289152.htm,Ow5fqi6DQXmgD5PGSB7QBdHF,106990,934138859
"东四九条",116.43233,39.93928,18,2,2,公交,bus,http://bus.bj.bendibao.com/zhandian/station289176.htm,Ow5fqi6DQXmgD5PGSB7QBdHF,106990,934138871
"西黄城根南街",116.38398,39.92435,43,1,2,公交,bus,http://bus.bj.bendibao.com/zhandian/station289596.htm,Ow5fqi6DQXmgD5PGSB7QBdHF,106990,934138881
"海运仓",116.43213,39.94336,16,1,2,公交,bus,http://bus.bj.bendibao.com/zhandian/station289175.htm,Ow5fqi6DQXmgD5PGSB7QBdHF,106990,934138900
"朝内小街",116.43089,39.93052,42,2,2,公交,bus,http://bus.bj.bendibao.com/zhandian/station289178.htm,Ow5fqi6DQXmgD5PGSB7QBdHF,106990,934138911
"东四六条",116.43246,39.93446,20,3,2,公交,bus,http://bus.bj.bendibao.com/zhandian/station289177.htm,Ow5fqi6DQXmgD5PGSB7QBdHF,106990,934138926
"新街口西",116.37853,39.94668,45,1,2,公交,bus,http://bus.bj.bendibao.com/zhandian/station289896.htm,Ow5fqi6DQXmgD5PGSB7QBdHF,106990,934138937
"东内小街",116.43085,39.94709,19,1,2,公交,bus,http://bus.bj.bendibao.com/zhandian/station289905.htm,Ow5fqi6DQXmgD5PGSB7QBdHF,106990,934138951
"西四路口西",116.37861,39.92998,44,3,2,公交,bus,http://bus.bj.bendibao.com/zhandian/station289009.htm,Ow5fqi6DQXmgD5PGSB7QBdHF,106990,934138971
"雍和宫桥北",116.42294,39.95553,22,3,2,公交,bus,http://bus.bj.bendibao.com/zhandian/station289956.htm,Ow5fqi6DQXmgD5PGSB7QBdHF,106990,934138994
"新东安市场",116.42034,39.92018,47,1,2,公交,bus,http://bus.bj.bendibao.com/zhandian/station289877.htm,Ow5fqi6DQXmgD5PGSB7QBdHF,106990,934139007
"新街口北",116.37896,39.94841,21,3,2,公交,bus,http://bus.bj.bendibao.com/zhandian/station289151.htm,Ow5fqi6DQXmgD5PGSB7QBdHF,106990,934139018
"西四路口南",116.38005,39.92725,46,2,2,公交,bus,http://bus.bj.bendibao.com/zhandian/station289871.htm,Ow5fqi6DQXmgD5PGSB7QBdHF,106990,934139030
"东直门内小街",116.43207,39.9468,7,3,2,公交,bus,http://bus.bj.bendibao.com/zhandian/station289174.htm,Ow5fqi6DQXmgD5PGSB7QBdHF,106990,934139040
"雍和宫桥东(东行)",116.42452,39.95538,32,3,2,公交,bus,http://bus.bj.bendibao.com/zhandian/station290013.htm,Ow5fqi6DQXmgD5PGSB7QBdHF,106990,934139047
"雍和宫桥东(西行)",116.42452,39.95538,5,2,2,公交,bus,http://bus.bj.bendibao.com/zhandian/station290012.htm,Ow5fqi6DQXmgD5PGSB7QBdHF,106990,934139062
"雍和宫桥东",116.42454,39.95538,31,2,2,公交,bus,http://bus.bj.bendibao.com/zhandian/station289021.htm,Ow5fqi6DQXmgD5PGSB7QBdHF,106990,934139078
"东直门北小街南口",116.43199,39.94766,9,1,2,公交,bus,http://bus.bj.bendibao.com/zhandian/station291224.htm,Ow5fqi6DQXmgD5PGSB7QBdHF,106990,934139094
"德胜门西",116.38382,39.95509,34,2,2,公交,bus,http://bus.bj.bendibao.com/zhandian/station289246.htm,Ow5fqi6DQXmgD5PGSB7QBdHF,106990,934139104
"缸瓦市",116.38009,39.92562,8,3,2,公交,bus,http://bus.bj.bendibao.com/zhandian/station289154.htm,Ow5fqi6DQXmgD5PGSB7QBdHF,106990,934139113
"德胜门",116.38336,39.95489,33,3,2,公交,bus,http://bus.bj.bendibao.com/zhandian/station288838.htm,Ow5fqi6DQXmgD5PGSB7QBdHF,106990,934139129
"宝产胡同",116.37474,39.94006,11,3,2,公交,bus,http://bus.bj.bendibao.com/zhandian/station288890.htm,Ow5fqi6DQXmgD5PGSB7QBdHF,106990,934139168
"米市大街",116.42428,39.92079,36,1,2,公交,bus,http://bus.bj.bendibao.com/zhandian/station289899.htm,Ow5fqi6DQXmgD5PGSB7QBdHF,106990,934139196
"安德路西口",116.38699,39.95755,10,3,2,公交,bus,http://bus.bj.bendibao.com/zhandian/station289241.htm,Ow5fqi6DQXmgD5PGSB7QBdHF,106990,934139229
"祖家街",116.37427,39.93618,35,2,2,公交,bus,http://bus.bj.bendibao.com/zhandian/station288889.htm,Ow5fqi6DQXmgD5PGSB7QBdHF,106990,934139253
"地铁新街口站",116.37508,39.94463,13,2,2,公交,bus,http://bus.bj.bendibao.com/zhandian/station289429.htm,Ow5fqi6DQXmgD5PGSB7QBdHF,106990,934139271
"鼓楼外大街南站",116.40157,39.96238,39,3,2,公交,bus,http://bus.bj.bendibao.com/zhandian/station289775.htm,Ow5fqi6DQXmgD5PGSB7QBdHF,106990,934139288
"积水潭桥南",116.37875,39.95216,12,1,2,公交,bus,http://bus.bj.bendibao.com/zhandian/station289150.htm,Ow5fqi6DQXmgD5PGSB7QBdHF,106990,934139299
"中山公园西门(南长街)",116.39827,39.91487,38,2,2,公交,bus,http://bus.bj.bendibao.com/zhandian/station294862.htm,Ow5fqi6DQXmgD5PGSB7QBdHF,106990,934139315
"灵境胡同",116.38334,39.92072,42,2,2,公交,bus,http://bus.bj.bendibao.com/zhandian/station289595.htm,Ow5fqi6DQXmgD5PGSB7QBdHF,106990,934139327
"南长街",116.39829,39.91474,18,2,2,公交,bus,http://bus.bj.bendibao.com/zhandian/station288828.htm,Ow5fqi6DQXmgD5PGSB7QBdHF,106990,934139339
"演乐胡同",116.43281,39.92708,41,2,2,公交,bus,http://bus.bj.bendibao.com/zhandian/station289179.htm,Ow5fqi6DQXmgD5PGSB7QBdHF,106990,934139353
"平安医院",116.3729,39.93823,17,1,2,公交,bus,http://bus.bj.bendibao.com/zhandian/station289911.htm,Ow5fqi6DQXmgD5PGSB7QBdHF,106990,934139361
"积水潭桥东",116.38062,39.95472,44,2,2,公交,bus,http://bus.bj.bendibao.com/zhandian/station289240.htm,Ow5fqi6DQXmgD5PGSB7QBdHF,106990,934139373
"天安门东",116.40756,39.9141,20,1,2,公交,bus,http://bus.bj.bendibao.com/zhandian/station288791.htm,Ow5fqi6DQXmgD5PGSB7QBdHF,106990,934139387
"新开胡同",116.37434,39.94653,43,2,2,公交,bus,http://bus.bj.bendibao.com/zhandian/station288891.htm,Ow5fqi6DQXmgD5PGSB7QBdHF,106990,934139396
"积水潭",116.38033,39.95481,19,3,2,公交,bus,http://bus.bj.bendibao.com/zhandian/station295155.htm,Ow5fqi6DQXmgD5PGSB7QBdHF,106990,934139413
"黄寺总政大院",116.39992,39.96316,47,2,2,公交,bus,http://bus.bj.bendibao.com/zhandian/station289536.htm,Ow5fqi6DQXmgD5PGSB7QBdHF,106990,934139425
"新街口",116.37415,39.94658,22,3,2,公交,bus,http://bus.bj.bendibao.com/zhandian/station295171.htm,Ow5fqi6DQXmgD5PGSB7QBdHF,106990,934139434
"力学胡同",116.38847,39.91711,45,2,2,公交,bus,http://bus.bj.bendibao.com/zhandian/station289033.htm,Ow5fqi6DQXmgD5PGSB7QBdHF,106990,934139447
"北京一四二中学",116.4145,39.96252,21,1,2,公交,bus,http://bus.bj.bendibao.com/zhandian/station289093.htm,Ow5fqi6DQXmgD5PGSB7QBdHF,106990,934139460
"报子胡同",116.37306,39.93302,49,1,2,公交,bus,http://bus.bj.bendibao.com/zhandian/station288888.htm,Ow5fqi6DQXmgD5PGSB7QBdHF,106990,934139468
"马尾沟",116.372286873,39.941193373,24,2,2,公交,bus,http://bus.bj.bendibao.com/zhandian/station289120.htm,Ow5fqi6DQXmgD5PGSB7QBdHF,106990,934139479
"天安门西",116.39973,39.9138,48,1,2,公交,bus,http://bus.bj.bendibao.com/zhandian/station288790.htm,Ow5fqi6DQXmgD5PGSB7QBdHF,106990,934139495
"德胜门外",116.38588,39.95921,23,2,2,公交,bus,http://bus.bj.bendibao.com/zhandian/station288839.htm,Ow5fqi6DQXmgD5PGSB7QBdHF,106990,934139509
"甘石桥",116.38023,39.92161,33,3,2,公交,bus,http://bus.bj.bendibao.com/zhandian/station289155.htm,Ow5fqi6DQXmgD5PGSB7QBdHF,106990,934139528
"南河沿",116.41308,39.91398,9,2,2,公交,bus,http://bus.bj.bendibao.com/zhandian/station288938.htm,Ow5fqi6DQXmgD5PGSB7QBdHF,106990,934139540
"石碑胡同",116.39704,39.91367,32,3,2,公交,bus,http://bus.bj.bendibao.com/zhandian/station288939.htm,Ow5fqi6DQXmgD5PGSB7QBdHF,106990,934139552
"王府井路口北",116.41793,39.91489,8,1,2,公交,bus,http://bus.bj.bendibao.com/zhandian/station289878.htm,Ow5fqi6DQXmgD5PGSB7QBdHF,106990,934139562
"北小街豁口",116.43049,39.95558,36,1,2,公交,bus,http://bus.bj.bendibao.com/zhandian/station288995.htm,Ow5fqi6DQXmgD5PGSB7QBdHF,106990,934139574
"和平里中街西口",116.41607,39.96323,11,1,2,公交,bus,http://bus.bj.bendibao.com/zhandian/station289981.htm,Ow5fqi6DQXmgD5PGSB7QBdHF,106990,934139591
"东直门北小街北口",116.43186,39.9545,34,2,2,公交,bus,http://bus.bj.bendibao.com/zhandian/station291223.htm,Ow5fqi6DQXmgD5PGSB7QBdHF,106990,934139602
"东四十条桥西",116.43895,39.93967,10,1,2,公交,bus,http://bus.bj.bendibao.com/zhandian/station289396.htm,Ow5fqi6DQXmgD5PGSB7QBdHF,106990,934139642
"东四十条桥",116.43905,39.93965,38,1,2,公交,bus,http://bus.bj.bendibao.com/zhandian/station289394.htm,Ow5fqi6DQXmgD5PGSB7QBdHF,106990,934139649
"东直门内",116.43727,39.94722,13,1,2,公交,bus,http://bus.bj.bendibao.com/zhandian/station289173.htm,Ow5fqi6DQXmgD5PGSB7QBdHF,106990,934139662
"王府井",116.41877,39.9144,37,3,2,公交,bus,http://bus.bj.bendibao.com/zhandian/station288937.htm,Ow5fqi6DQXmgD5PGSB7QBdHF,106990,934139672
"冰窖口胡同西口",116.37989,39.95708,12,2,2,公交,bus,http://bus.bj.bendibao.com/zhandian/station292545.htm,Ow5fqi6DQXmgD5PGSB7QBdHF,106990,934139684
"地坛东门",116.4254,39.9601,40,1,2,公交,bus,http://bus.bj.bendibao.com/zhandian/station289957.htm,Ow5fqi6DQXmgD5PGSB7QBdHF,106990,934139700
"辟才胡同东口",116.37899,39.92056,15,1,2,公交,bus,http://bus.bj.bendibao.com/zhandian/station289372.htm,Ow5fqi6DQXmgD5PGSB7QBdHF,106990,934139706
"禄米仓",116.43304,39.92286,39,3,2,公交,bus,http://bus.bj.bendibao.com/zhandian/station289180.htm,Ow5fqi6DQXmgD5PGSB7QBdHF,106990,934139716
"朝阳门内",116.43858,39.9304,14,1,2,公交,bus,http://bus.bj.bendibao.com/zhandian/station289862.htm,Ow5fqi6DQXmgD5PGSB7QBdHF,106990,934139727
"白塔寺(南)",116.37133,39.9293,10,2,2,公交,bus,http://bus.bj.bendibao.com/zhandian/station288887.htm,Ow5fqi6DQXmgD5PGSB7QBdHF,106990,934139741
"东单路口西",116.42151,39.91444,35,2,2,公交,bus,http://bus.bj.bendibao.com/zhandian/station288792.htm,Ow5fqi6DQXmgD5PGSB7QBdHF,106990,934139751
"东四十条桥南",116.44048,39.93899,9,2,2,公交,bus,http://bus.bj.bendibao.com/zhandian/station289406.htm,Ow5fqi6DQXmgD5PGSB7QBdHF,106990,934139758
"白塔寺",116.37128,39.92897,34,2,2,公交,bus,http://bus.bj.bendibao.com/zhandian/station289010.htm,Ow5fqi6DQXmgD5PGSB7QBdHF,106990,934139763
"积水潭桥北",116.3782,39.9573,12,3,2,公交,bus,http://bus.bj.bendibao.com/zhandian/station290686.htm,Ow5fqi6DQXmgD5PGSB7QBdHF,106990,934139768
"官园",116.36872,39.93813,37,3,2,公交,bus,http://bus.bj.bendibao.com/zhandian/station289838.htm,Ow5fqi6DQXmgD5PGSB7QBdHF,106990,934139778
"东单路口北",116.42452,39.91534,11,2,2,公交,bus,http://bus.bj.bendibao.com/zhandian/station289898.htm,Ow5fqi6DQXmgD5PGSB7QBdHF,106990,934139788
"六部口南",116.38895,39.91352,36,3,2,公交,bus,http://bus.bj.bendibao.com/zhandian/station289032.htm,Ow5fqi6DQXmgD5PGSB7QBdHF,106990,934139796
"新街口豁口",116.37345,39.95291,14,2,2,公交,bus,http://bus.bj.bendibao.com/zhandian/station289247.htm,Ow5fqi6DQXmgD5PGSB7QBdHF,106990,934139803
"地坛北门",116.42214,39.96332,40,2,2,公交,bus,http://bus.bj.bendibao.com/zhandian/station289982.htm,Ow5fqi6DQXmgD5PGSB7QBdHF,106990,934139817
"和平里北街西口",116.41584,39.9654,13,2,2,公交,bus,http://bus.bj.bendibao.com/zhandian/station289890.htm,Ow5fqi6DQXmgD5PGSB7QBdHF,106990,934139829
"蒋宅口",116.41432,39.96595,39,2,2,公交,bus,http://bus.bj.bendibao.com/zhandian/station289094.htm,Ow5fqi6DQXmgD5PGSB7QBdHF,106990,934139882
"东单",116.42458,39.91451,16,1,2,公交,bus,http://bus.bj.bendibao.com/zhandian/station295143.htm,Ow5fqi6DQXmgD5PGSB7QBdHF,106990,934139913
"小西天",116.37816,39.95885,42,3,2,公交,bus,http://bus.bj.bendibao.com/zhandian/station289149.htm,Ow5fqi6DQXmgD5PGSB7QBdHF,106990,934139935
"德外关厢",116.38583,39.96347,15,1,2,公交,bus,http://bus.bj.bendibao.com/zhandian/station288840.htm,Ow5fqi6DQXmgD5PGSB7QBdHF,106990,934139938
"和平里南口",116.43175,39.95911,41,3,2,公交,bus,http://bus.bj.bendibao.com/zhandian/station288994.htm,Ow5fqi6DQXmgD5PGSB7QBdHF,106990,934139949
"和平里南街",116.43035,39.96024,51,1,2,公交,bus,http://bus.bj.bendibao.com/zhandian/station289960.htm,Ow5fqi6DQXmgD5PGSB7QBdHF,106990,934139958
"兴化路",116.41983,39.96549,26,1,2,公交,bus,http://bus.bj.bendibao.com/zhandian/station289889.htm,Ow5fqi6DQXmgD5PGSB7QBdHF,106990,934139978
"文慧园路东口",116.37712,39.95878,50,1,2,公交,bus,http://bus.bj.bendibao.com/zhandian/station291774.htm,Ow5fqi6DQXmgD5PGSB7QBdHF,106990,934139988
"鼓楼外大街北站",116.40133,39.96784,25,2,2,公交,bus,http://bus.bj.bendibao.com/zhandian/station289774.htm,Ow5fqi6DQXmgD5PGSB7QBdHF,106990,934139999
"和平里中街",116.42499,39.9635,3,2,2,公交,bus,http://bus.bj.bendibao.com/zhandian/station289983.htm,Ow5fqi6DQXmgD5PGSB7QBdHF,106990,934140007
"东单路口南",116.42457,39.91356,29,3,2,公交,bus,http://bus.bj.bendibao.com/zhandian/station289393.htm,Ow5fqi6DQXmgD5PGSB7QBdHF,106990,934140017
"东直门北",116.44022,39.94961,52,2,2,公交,bus,http://bus.bj.bendibao.com/zhandian/station289407.htm,Ow5fqi6DQXmgD5PGSB7QBdHF,106990,934140027
"东单路口东",116.42695,39.91451,28,1,2,公交,bus,http://bus.bj.bendibao.com/zhandian/station288936.htm,Ow5fqi6DQXmgD5PGSB7QBdHF,106990,934140040
"北官厅",116.43629,39.95565,5,2,2,公交,bus,http://bus.bj.bendibao.com/zhandian/station289411.htm,Ow5fqi6DQXmgD5PGSB7QBdHF,106990,934140058
"西单(民航大厦)",116.38442,39.9134,31,1,2,公交,bus,http://bus.bj.bendibao.com/zhandian/station300141.htm,Ow5fqi6DQXmgD5PGSB7QBdHF,106990,934140068
"西单",116.38442,39.9134,4,1,2,公交,bus,http://bus.bj.bendibao.com/zhandian/station295142.htm,Ow5fqi6DQXmgD5PGSB7QBdHF,106990,934140085
"朝阳门南",116.44111,39.9285,30,1,2,公交,bus,http://bus.bj.bendibao.com/zhandian/station289405.htm,Ow5fqi6DQXmgD5PGSB7QBdHF,106990,934140102
"朝阳门",116.44111,39.9285,8,1,2,公交,bus,http://bus.bj.bendibao.com/zhandian/station294844.htm,Ow5fqi6DQXmgD5PGSB7QBdHF,106990,934140115
"西单商场",116.3806,39.91535,33,1,2,公交,bus,http://bus.bj.bendibao.com/zhandian/station289156.htm,Ow5fqi6DQXmgD5PGSB7QBdHF,106990,934140132
"天安门广场西",116.4024,39.90866,6,1,2,公交,bus,http://bus.bj.bendibao.com/zhandian/station288813.htm,Ow5fqi6DQXmgD5PGSB7QBdHF,106990,934140142
"官园西门",116.36566,39.93895,32,2,2,公交,bus,http://bus.bj.bendibao.com/zhandian/station289457.htm,Ow5fqi6DQXmgD5PGSB7QBdHF,106990,934140159
"丰盛胡同",116.37109,39.92334,27,2,2,公交,bus,http://bus.bj.bendibao.com/zhandian/station288886.htm,Ow5fqi6DQXmgD5PGSB7QBdHF,106990,934140183
"外交部街",116.43342,39.91791,3,1,2,公交,bus,http://bus.bj.bendibao.com/zhandian/station289181.htm,Ow5fqi6DQXmgD5PGSB7QBdHF,106990,934140221
"西单路口东",116.38299,39.91336,26,2,2,公交,bus,http://bus.bj.bendibao.com/zhandian/station288789.htm,Ow5fqi6DQXmgD5PGSB7QBdHF,106990,934140229
"西绒线胡同东",116.38956,39.91054,52,1,2,公交,bus,http://bus.bj.bendibao.com/zhandian/station288898.htm,Ow5fqi6DQXmgD5PGSB7QBdHF,106990,934140237
"西直门南小街",116.36546,39.9434,30,2,2,公交,bus,http://bus.bj.bendibao.com/zhandian/station289456.htm,Ow5fqi6DQXmgD5PGSB7QBdHF,106990,934140250
"外馆斜街",116.41007,39.96904,5,3,2,公交,bus,http://bus.bj.bendibao.com/zhandian/station289933.htm,Ow5fqi6DQXmgD5PGSB7QBdHF,106990,934140263
"小黄庄",116.41511,39.96837,28,2,2,公交,bus,http://bus.bj.bendibao.com/zhandian/station289665.htm,Ow5fqi6DQXmgD5PGSB7QBdHF,106990,934140277
"西直门内",116.36603,39.9463,4,1,2,公交,bus,http://bus.bj.bendibao.com/zhandian/station288892.htm,Ow5fqi6DQXmgD5PGSB7QBdHF,106990,934140291
"东四十条桥东",116.4448,39.93962,32,2,2,公交,bus,http://bus.bj.bendibao.com/zhandian/station289935.htm,Ow5fqi6DQXmgD5PGSB7QBdHF,106990,934140306
"安华西里",116.40458,39.96963,7,1,2,公交,bus,http://bus.bj.bendibao.com/zhandian/station289932.htm,Ow5fqi6DQXmgD5PGSB7QBdHF,106990,934140315
"东直门(枢纽站)",116.44315,39.94812,31,2,2,公交,bus,http://bus.bj.bendibao.com/zhandian/station289906.htm,Ow5fqi6DQXmgD5PGSB7QBdHF,106990,934140330
"和平里北街",116.42488,39.96564,6,2,2,公交,bus,http://bus.bj.bendibao.com/zhandian/station289888.htm,Ow5fqi6DQXmgD5PGSB7QBdHF,106990,934140338
"黄寺大街东口",116.39902,39.96946,34,3,2,公交,bus,http://bus.bj.bendibao.com/zhandian/station289977.htm,Ow5fqi6DQXmgD5PGSB7QBdHF,106990,934140351
"北官厅(西行)",116.43841,39.95593,9,2,2,公交,bus,http://bus.bj.bendibao.com/zhandian/station289091.htm,Ow5fqi6DQXmgD5PGSB7QBdHF,106990,934140362
"教育部",116.3758,39.91668,33,2,2,公交,bus,http://bus.bj.bendibao.com/zhandian/station289427.htm,Ow5fqi6DQXmgD5PGSB7QBdHF,106990,934140379
"正义路南口",116.41314,39.90792,8,2,2,公交,bus,http://bus.bj.bendibao.com/zhandian/station289392.htm,Ow5fqi6DQXmgD5PGSB7QBdHF,106990,934140393
"天安门广场东",116.40613,39.90726,19,2,2,公交,bus,http://bus.bj.bendibao.com/zhandian/station288808.htm,Ow5fqi6DQXmgD5PGSB7QBdHF,106990,934140409
"东直门",116.44414,39.94707,44,2,2,公交,bus,http://bus.bj.bendibao.com/zhandian/station289172.htm,Ow5fqi6DQXmgD5PGSB7QBdHF,106990,934140428
"黄寺",116.3954,39.96932,17,1,2,公交,bus,http://bus.bj.bendibao.com/zhandian/station289976.htm,Ow5fqi6DQXmgD5PGSB7QBdHF,106990,934140441
"武定胡同",116.36815,39.92435,43,3,2,公交,bus,http://bus.bj.bendibao.com/zhandian/station294870.htm,Ow5fqi6DQXmgD5PGSB7QBdHF,106990,934140449
"志强北园小区",116.37276,39.95851,21,2,2,公交,bus,http://bus.bj.bendibao.com/zhandian/station291773.htm,Ow5fqi6DQXmgD5PGSB7QBdHF,106990,934140459
"玉桃园",116.36658,39.95053,46,3,2,公交,bus,http://bus.bj.bendibao.com/zhandian/station289239.htm,Ow5fqi6DQXmgD5PGSB7QBdHF,106990,934140467
"青年沟西口",116.41996,39.96825,20,2,2,公交,bus,http://bus.bj.bendibao.com/zhandian/station289666.htm,Ow5fqi6DQXmgD5PGSB7QBdHF,106990,934140482
"车公庄东",116.36333,39.93801,45,3,2,公交,bus,http://bus.bj.bendibao.com/zhandian/station289837.htm,Ow5fqi6DQXmgD5PGSB7QBdHF,106990,934140495
"西单路口西",116.37939,39.91339,23,2,2,公交,bus,http://bus.bj.bendibao.com/zhandian/station288941.htm,Ow5fqi6DQXmgD5PGSB7QBdHF,106990,934140509
"前门东",116.40709,39.90667,48,2,2,公交,bus,http://bus.bj.bendibao.com/zhandian/station288913.htm,Ow5fqi6DQXmgD5PGSB7QBdHF,106990,934140524
"远洋风景小区",116.36755,39.95292,22,2,2,公交,bus,http://bus.bj.bendibao.com/zhandian/station291775.htm,Ow5fqi6DQXmgD5PGSB7QBdHF,106990,934140535
"正义路",116.4119,39.90702,47,2,2,公交,bus,http://bus.bj.bendibao.com/zhandian/station288912.htm,Ow5fqi6DQXmgD5PGSB7QBdHF,106990,934140546
"前门西",116.40035,39.90659,25,2,2,公交,bus,http://bus.bj.bendibao.com/zhandian/station288921.htm,Ow5fqi6DQXmgD5PGSB7QBdHF,106990,934140557
"辟才胡同西口",116.37059,39.91993,51,2,2,公交,bus,http://bus.bj.bendibao.com/zhandian/station289426.htm,Ow5fqi6DQXmgD5PGSB7QBdHF,106990,934140575
"北京站口西",116.43273,39.91449,24,3,2,公交,bus,http://bus.bj.bendibao.com/zhandian/station288950.htm,Ow5fqi6DQXmgD5PGSB7QBdHF,106990,934140589
"北京站口北",116.43348,39.91497,50,3,2,公交,bus,http://bus.bj.bendibao.com/zhandian/station289182.htm,Ow5fqi6DQXmgD5PGSB7QBdHF,106990,934140601
"朝阳门外",116.4454,39.93015,45,3,2,公交,bus,http://bus.bj.bendibao.com/zhandian/station289664.htm,Ow5fqi6DQXmgD5PGSB7QBdHF,106990,934140611
"北京师范大学",116.37755,39.96344,20,3,2,公交,bus,http://bus.bj.bendibao.com/zhandian/station289148.htm,Ow5fqi6DQXmgD5PGSB7QBdHF,106990,934140624
"福丽特",116.38953,39.9691,44,1,2,公交,bus,http://bus.bj.bendibao.com/zhandian/station289975.htm,Ow5fqi6DQXmgD5PGSB7QBdHF,106990,934140632
"车公庄",116.36232,39.93816,19,3,2,公交,bus,http://bus.bj.bendibao.com/zhandian/station295154.htm,Ow5fqi6DQXmgD5PGSB7QBdHF,106990,934140640
"车公庄南",116.36238,39.93678,47,2,2,公交,bus,http://bus.bj.bendibao.com/zhandian/station289146.htm,Ow5fqi6DQXmgD5PGSB7QBdHF,106990,934140656
"北京供电局",116.39611,39.90661,23,2,2,公交,bus,http://bus.bj.bendibao.com/zhandian/station288922.htm,Ow5fqi6DQXmgD5PGSB7QBdHF,106990,934140666
"车公庄北",116.36225,39.93974,46,3,2,公交,bus,http://bus.bj.bendibao.com/zhandian/station289455.htm,Ow5fqi6DQXmgD5PGSB7QBdHF,106990,934140675
"东直门外",116.44554,39.94815,22,2,2,公交,bus,http://bus.bj.bendibao.com/zhandian/station289090.htm,Ow5fqi6DQXmgD5PGSB7QBdHF,106990,934140687
"东土城路南口",116.43906,39.95811,49,3,2,公交,bus,http://bus.bj.bendibao.com/zhandian/station289980.htm,Ow5fqi6DQXmgD5PGSB7QBdHF,106990,934140696
"辟才胡同",116.37,39.91964,25,3,2,公交,bus,http://bus.bj.bendibao.com/zhandian/station288885.htm,Ow5fqi6DQXmgD5PGSB7QBdHF,106990,934140705
"阜成门内",116.36372,39.92975,48,1,2,公交,bus,http://bus.bj.bendibao.com/zhandian/station289011.htm,Ow5fqi6DQXmgD5PGSB7QBdHF,106990,934140718
"和平里路口西",116.42957,39.96548,24,3,2,公交,bus,http://bus.bj.bendibao.com/zhandian/station289887.htm,Ow5fqi6DQXmgD5PGSB7QBdHF,106990,934140731
"西直门南",116.36236,39.94318,52,2,2,公交,bus,http://bus.bj.bendibao.com/zhandian/station289132.htm,Ow5fqi6DQXmgD5PGSB7QBdHF,106990,934140745
"台基厂路口西",116.41747,39.90716,27,2,2,公交,bus,http://bus.bj.bendibao.com/zhandian/station288920.htm,Ow5fqi6DQXmgD5PGSB7QBdHF,106990,934140762
"二龙路南口",116.37349,39.91593,50,1,2,公交,bus,http://bus.bj.bendibao.com/zhandian/station291693.htm,Ow5fqi6DQXmgD5PGSB7QBdHF,106990,934140779
"文慧园路",116.36996,39.95834,26,2,2,公交,bus,http://bus.bj.bendibao.com/zhandian/station291772.htm,Ow5fqi6DQXmgD5PGSB7QBdHF,106990,934140793
"雅宝路",116.44149,39.92109,36,1,2,公交,bus,http://bus.bj.bendibao.com/zhandian/station289404.htm,Ow5fqi6DQXmgD5PGSB7QBdHF,106990,934140806
"西单路口南",116.38051,39.91108,12,3,2,公交,bus,http://bus.bj.bendibao.com/zhandian/station289048.htm,Ow5fqi6DQXmgD5PGSB7QBdHF,106990,934140823
"北京站口东",116.4346,39.91449,35,2,2,公交,bus,http://bus.bj.bendibao.com/zhandian/station288793.htm,Ow5fqi6DQXmgD5PGSB7QBdHF,106990,934140834
"台基厂路口东",116.41965,39.90735,11,3,2,公交,bus,http://bus.bj.bendibao.com/zhandian/station289391.htm,Ow5fqi6DQXmgD5PGSB7QBdHF,106990,934140848
"阜成门北",116.36262,39.931,38,2,2,公交,bus,http://bus.bj.bendibao.com/zhandian/station289117.htm,Ow5fqi6DQXmgD5PGSB7QBdHF,106990,934140863
"和平里路口南",116.43159,39.96498,14,1,2,公交,bus,http://bus.bj.bendibao.com/zhandian/station288993.htm,Ow5fqi6DQXmgD5PGSB7QBdHF,106990,934140882
"金树街",116.36643,39.92257,37,1,2,公交,bus,http://bus.bj.bendibao.com/zhandian/station294869.htm,Ow5fqi6DQXmgD5PGSB7QBdHF,106990,934140899
"车公庄西",116.36102,39.93814,13,1,2,公交,bus,http://bus.bj.bendibao.com/zhandian/station289118.htm,Ow5fqi6DQXmgD5PGSB7QBdHF,106990,934140907
"和平门内",116.39062,39.90673,41,2,2,公交,bus,http://bus.bj.bendibao.com/zhandian/station288899.htm,Ow5fqi6DQXmgD5PGSB7QBdHF,106990,934140919
"和平西街",116.42453,39.96873,16,1,2,公交,bus,http://bus.bj.bendibao.com/zhandian/station289667.htm,Ow5fqi6DQXmgD5PGSB7QBdHF,106990,934140932
"和平门东",116.3917,39.90639,39,3,2,公交,bus,http://bus.bj.bendibao.com/zhandian/station288923.htm,Ow5fqi6DQXmgD5PGSB7QBdHF,106990,934140947
"崇文门内",116.42476,39.9085,15,1,2,公交,bus,http://bus.bj.bendibao.com/zhandian/station289199.htm,Ow5fqi6DQXmgD5PGSB7QBdHF,106990,934140953
"工人体育馆",116.44885,39.93949,43,3,2,公交,bus,http://bus.bj.bendibao.com/zhandian/station289936.htm,Ow5fqi6DQXmgD5PGSB7QBdHF,106990,934140963
"安外甘水桥",116.41419,39.97183,18,3,2,公交,bus,http://bus.bj.bendibao.com/zhandian/station289095.htm,Ow5fqi6DQXmgD5PGSB7QBdHF,106990,934140977
"前门",116.40694,39.90466,42,3,2,公交,bus,http://bus.bj.bendibao.com/zhandian/station288827.htm,Ow5fqi6DQXmgD5PGSB7QBdHF,106990,934140990
"和平门",116.39038,39.90636,17,1,2,公交,bus,http://bus.bj.bendibao.com/zhandian/station295151.htm,Ow5fqi6DQXmgD5PGSB7QBdHF,106990,934141006
"珠市口",116.40448,39.90448,22,1,2,公交,bus,http://bus.bj.bendibao.com/zhandian/station300188.htm,Ow5fqi6DQXmgD5PGSB7QBdHF,106990,934141023
"阜成门南",116.36275,39.92744,47,2,2,公交,bus,http://bus.bj.bendibao.com/zhandian/station289131.htm,Ow5fqi6DQXmgD5PGSB7QBdHF,106990,934141034
"海云轩公寓",116.36481,39.95376,21,2,2,公交,bus,http://bus.bj.bendibao.com/zhandian/station291776.htm,Ow5fqi6DQXmgD5PGSB7QBdHF,106990,934141050
"西绒线胡同西",116.38017,39.91002,46,1,2,公交,bus,http://bus.bj.bendibao.com/zhandian/station288897.htm,Ow5fqi6DQXmgD5PGSB7QBdHF,106990,934141066
"和平里路口北",116.43156,39.96607,24,1,2,公交,bus,http://bus.bj.bendibao.com/zhandian/station289022.htm,Ow5fqi6DQXmgD5PGSB7QBdHF,106990,934141081
"北京站前街",116.43362,39.91241,49,2,2,公交,bus,http://bus.bj.bendibao.com/zhandian/station288934.htm,Ow5fqi6DQXmgD5PGSB7QBdHF,106990,934141086
"崇文门西",116.42342,39.90731,23,2,2,公交,bus,http://bus.bj.bendibao.com/zhandian/station288911.htm,Ow5fqi6DQXmgD5PGSB7QBdHF,106990,934141108
"北京师范大学南门",116.37413,39.96387,48,2,2,公交,bus,http://bus.bj.bendibao.com/zhandian/station289074.htm,Ow5fqi6DQXmgD5PGSB7QBdHF,106990,934141136
"北京站西",116.43007,39.9101,26,1,2,公交,bus,http://bus.bj.bendibao.com/zhandian/station289879.htm,Ow5fqi6DQXmgD5PGSB7QBdHF,106990,934141162
"和平里路口东",116.43314,39.96542,52,2,2,公交,bus,http://bus.bj.bendibao.com/zhandian/station289978.htm,Ow5fqi6DQXmgD5PGSB7QBdHF,106990,934141182
"崇文门",116.42391,39.90732,25,1,2,公交,bus,http://bus.bj.bendibao.com/zhandian/station295150.htm,Ow5fqi6DQXmgD5PGSB7QBdHF,106990,934141208
"北京站西街西口",116.42897,39.90941,51,1,2,公交,bus,http://bus.bj.bendibao.com/zhandian/station289280.htm,Ow5fqi6DQXmgD5PGSB7QBdHF,106990,934141230
"西直门",116.3602,39.94449,28,1,2,公交,bus,http://bus.bj.bendibao.com/zhandian/station289785.htm,Ow5fqi6DQXmgD5PGSB7QBdHF,106990,934141240
"黄寺大街西口",116.3865,39.97061,4,1,2,公交,bus,http://bus.bj.bendibao.com/zhandian/station289974.htm,Ow5fqi6DQXmgD5PGSB7QBdHF,106990,934141257
"安华桥南",116.40104,39.97346,27,2,2,公交,bus,http://bus.bj.bendibao.com/zhandian/station289773.htm,Ow5fqi6DQXmgD5PGSB7QBdHF,106990,934141273
"东土城路",116.43881,39.96192,3,1,2,公交,bus,http://bus.bj.bendibao.com/zhandian/station289979.htm,Ow5fqi6DQXmgD5PGSB7QBdHF,106990,934141281
"阜成门",116.36086,39.92929,13,1,2,公交,bus,http://bus.bj.bendibao.com/zhandian/station289018.htm,Ow5fqi6DQXmgD5PGSB7QBdHF,106990,934141292
"和平门外",116.39067,39.90525,38,1,2,公交,bus,http://bus.bj.bendibao.com/zhandian/station288880.htm,Ow5fqi6DQXmgD5PGSB7QBdHF,106990,934141302
"马尾沟",116.35957,39.9339,12,2,2,公交,bus,http://bus.bj.bendibao.com/zhandian/station289120.htm,Ow5fqi6DQXmgD5PGSB7QBdHF,106990,934141315
"工人体育场北路",116.45043,39.94028,37,2,2,公交,bus,http://bus.bj.bendibao.com/zhandian/station291846.htm,Ow5fqi6DQXmgD5PGSB7QBdHF,106990,934141330
"工人体育场西门",116.45041,39.93608,15,3,2,公交,bus,http://bus.bj.bendibao.com/zhandian/station291847.htm,Ow5fqi6DQXmgD5PGSB7QBdHF,106990,934141346
"朝外北街",116.44994,39.93273,41,3,2,公交,bus,http://bus.bj.bendibao.com/zhandian/station292323.htm,Ow5fqi6DQXmgD5PGSB7QBdHF,106990,934141356
"青年沟东口",116.42971,39.96828,14,2,2,公交,bus,http://bus.bj.bendibao.com/zhandian/station289963.htm,Ow5fqi6DQXmgD5PGSB7QBdHF,106990,934141368
"索家坟",116.36293,39.95323,40,1,2,公交,bus,http://bus.bj.bendibao.com/zhandian/station289133.htm,Ow5fqi6DQXmgD5PGSB7QBdHF,106990,934141382
"北京站",116.43372,39.91116,17,2,2,公交,bus,http://bus.bj.bendibao.com/zhandian/station289183.htm,Ow5fqi6DQXmgD5PGSB7QBdHF,106990,934141397
"太平桥",116.36978,39.91565,43,3,2,公交,bus,http://bus.bj.bendibao.com/zhandian/station288884.htm,Ow5fqi6DQXmgD5PGSB7QBdHF,106990,934141407
"金融街购物中心",116.36643,39.91896,16,2,2,公交,bus,http://bus.bj.bendibao.com/zhandian/station294868.htm,Ow5fqi6DQXmgD5PGSB7QBdHF,106990,934141424
"崇文门外",116.42497,39.90664,42,3,2,公交,bus,http://bus.bj.bendibao.com/zhandian/station289916.htm,Ow5fqi6DQXmgD5PGSB7QBdHF,106990,934141428
"阜外医院",116.35971,39.92995,20,2,2,公交,bus,http://bus.bj.bendibao.com/zhandian/station289121.htm,Ow5fqi6DQXmgD5PGSB7QBdHF,106990,934141438
"铁狮子坟",116.37716,39.96754,45,2,2,公交,bus,http://bus.bj.bendibao.com/zhandian/station289075.htm,Ow5fqi6DQXmgD5PGSB7QBdHF,106990,934141449
"东外斜街",116.44817,39.95182,18,2,2,公交,bus,http://bus.bj.bendibao.com/zhandian/station291181.htm,Ow5fqi6DQXmgD5PGSB7QBdHF,106990,934141471
"月坛体育场",116.36281,39.92282,44,3,2,公交,bus,http://bus.bj.bendibao.com/zhandian/station289130.htm,Ow5fqi6DQXmgD5PGSB7QBdHF,106990,934141482
"春秀路",116.45032,39.94692,39,1,2,公交,bus,http://bus.bj.bendibao.com/zhandian/station289171.htm,Ow5fqi6DQXmgD5PGSB7QBdHF,106990,934141490
"今典花园",116.36807,39.96104,15,3,2,公交,bus,http://bus.bj.bendibao.com/zhandian/station291771.htm,Ow5fqi6DQXmgD5PGSB7QBdHF,106990,934141511
"投资广场",116.36626,39.91805,38,1,2,公交,bus,http://bus.bj.bendibao.com/zhandian/station294872.htm,Ow5fqi6DQXmgD5PGSB7QBdHF,106990,934141519
"鲜鱼口",116.40656,39.90253,14,2,2,公交,bus,http://bus.bj.bendibao.com/zhandian/station300187.htm,Ow5fqi6DQXmgD5PGSB7QBdHF,106990,934141525
"春秀路南站",116.45099,39.94525,42,3,2,公交,bus,http://bus.bj.bendibao.com/zhandian/station291845.htm,Ow5fqi6DQXmgD5PGSB7QBdHF,106990,934141538
"民族文化宫",116.37141,39.91313,17,1,2,公交,bus,http://bus.bj.bendibao.com/zhandian/station288895.htm,Ow5fqi6DQXmgD5PGSB7QBdHF,106990,934141553
"佟麟阁路",116.3749,39.91067,40,3,2,公交,bus,http://bus.bj.bendibao.com/zhandian/station288896.htm,Ow5fqi6DQXmgD5PGSB7QBdHF,106990,934141568
"南礼士路北口",116.35966,39.92837,16,2,2,公交,bus,http://bus.bj.bendibao.com/zhandian/station289012.htm,Ow5fqi6DQXmgD5PGSB7QBdHF,106990,934141579
"祈年大街北口",116.41852,39.904,44,2,2,公交,bus,http://bus.bj.bendibao.com/zhandian/station289919.htm,Ow5fqi6DQXmgD5PGSB7QBdHF,106990,934141590
"柳芳西口",116.44228,39.96051,19,3,2,公交,bus,http://bus.bj.bendibao.com/zhandian/station289884.htm,Ow5fqi6DQXmgD5PGSB7QBdHF,106990,934141599
"西直门(北)",116.35958,39.9489,43,2,2,公交,bus,http://bus.bj.bendibao.com/zhandian/station289789.htm,Ow5fqi6DQXmgD5PGSB7QBdHF,106990,934141618
"马甸桥南",116.38668,39.97217,18,1,2,公交,bus,http://bus.bj.bendibao.com/zhandian/station288841.htm,Ow5fqi6DQXmgD5PGSB7QBdHF,106990,934141627
"崇文门东",116.42766,39.90671,46,2,2,公交,bus,http://bus.bj.bendibao.com/zhandian/station288980.htm,Ow5fqi6DQXmgD5PGSB7QBdHF,106990,934141638
"城铁西直门站",116.35855,39.94669,21,2,2,公交,bus,http://bus.bj.bendibao.com/zhandian/station289072.htm,Ow5fqi6DQXmgD5PGSB7QBdHF,106990,934141650
"安华桥西",116.39781,39.97482,45,3,2,公交,bus,http://bus.bj.bendibao.com/zhandian/station290102.htm,Ow5fqi6DQXmgD5PGSB7QBdHF,106990,934141658
"北京儿童医院(北)",116.36346,39.92056,20,1,2,公交,bus,http://bus.bj.bendibao.com/zhandian/station290066.htm,Ow5fqi6DQXmgD5PGSB7QBdHF,106990,934141677
"宣武门内",116.38075,39.90702,31,1,2,公交,bus,http://bus.bj.bendibao.com/zhandian/station289782.htm,Ow5fqi6DQXmgD5PGSB7QBdHF,106990,934141688
"文慧桥北",116.374527201,39.9669496085,6,3,2,公交,bus,http://bus.bj.bendibao.com/zhandian/station289134.htm,Ow5fqi6DQXmgD5PGSB7QBdHF,106990,934141705
"阜成门外",116.35839,39.92935,29,2,2,公交,bus,http://bus.bj.bendibao.com/zhandian/station289508.htm,Ow5fqi6DQXmgD5PGSB7QBdHF,106990,934141723
"安贞桥西",116.41139,39.97523,5,2,2,公交,bus,http://bus.bj.bendibao.com/zhandian/station290101.htm,Ow5fqi6DQXmgD5PGSB7QBdHF,106990,934141746
"柳芳",116.43961,39.96405,33,3,2,公交,bus,http://bus.bj.bendibao.com/zhandian/station295249.htm,Ow5fqi6DQXmgD5PGSB7QBdHF,106990,934141758
"北京站东",116.43684,39.91104,8,3,2,公交,bus,http://bus.bj.bendibao.com/zhandian/station288919.htm,Ow5fqi6DQXmgD5PGSB7QBdHF,106990,934141780
"宣武门东",116.38192,39.90599,32,1,2,公交,bus,http://bus.bj.bendibao.com/zhandian/station288881.htm,Ow5fqi6DQXmgD5PGSB7QBdHF,106990,934141797
"香河园",116.44804,39.95495,7,2,2,公交,bus,http://bus.bj.bendibao.com/zhandian/station289089.htm,Ow5fqi6DQXmgD5PGSB7QBdHF,106990,934141808
"大栅栏",116.40739,39.9016,35,1,2,公交,bus,http://bus.bj.bendibao.com/zhandian/station288807.htm,Ow5fqi6DQXmgD5PGSB7QBdHF,106990,934141820
"宣武门",116.38088,39.90643,10,1,2,公交,bus,http://bus.bj.bendibao.com/zhandian/station295152.htm,Ow5fqi6DQXmgD5PGSB7QBdHF,106990,934141835
"神路街",116.45145,39.92915,34,2,2,公交,bus,http://bus.bj.bendibao.com/zhandian/station289663.htm,Ow5fqi6DQXmgD5PGSB7QBdHF,106990,934141851
"工人体育场南门",116.45269,39.93158,9,1,2,公交,bus,http://bus.bj.bendibao.com/zhandian/station291848.htm,Ow5fqi6DQXmgD5PGSB7QBdHF,106990,934141866
"建国门",116.44229,39.91459,37,1,2,公交,bus,http://bus.bj.bendibao.com/zhandian/station295144.htm,Ow5fqi6DQXmgD5PGSB7QBdHF,106990,934141875
"春秀路北口",116.44973,39.95366,13,1,2,公交,bus,http://bus.bj.bendibao.com/zhandian/station291844.htm,Ow5fqi6DQXmgD5PGSB7QBdHF,106990,934141886
"安贞桥东",116.41641,39.97533,36,3,2,公交,bus,http://bus.bj.bendibao.com/zhandian/station289959.htm,Ow5fqi6DQXmgD5PGSB7QBdHF,106990,934141899
"三塔寺",116.35568,39.93796,12,2,2,公交,bus,http://bus.bj.bendibao.com/zhandian/station289119.htm,Ow5fqi6DQXmgD5PGSB7QBdHF,106990,934141909
"月坛公园",116.35935,39.92416,7,2,2,公交,bus,http://bus.bj.bendibao.com/zhandian/station289013.htm,Ow5fqi6DQXmgD5PGSB7QBdHF,106990,934141922
"马甸桥东",116.38888,39.97447,32,3,2,公交,bus,http://bus.bj.bendibao.com/zhandian/station288842.htm,Ow5fqi6DQXmgD5PGSB7QBdHF,106990,934141938
"宣武门西",116.38009,39.90583,6,3,2,公交,bus,http://bus.bj.bendibao.com/zhandian/station288924.htm,Ow5fqi6DQXmgD5PGSB7QBdHF,106990,934141943
"和平门西",116.38007,39.90583,31,1,2,公交,bus,http://bus.bj.bendibao.com/zhandian/station288933.htm,Ow5fqi6DQXmgD5PGSB7QBdHF,106990,934141950
"城铁柳芳站",116.43972,39.96542,9,2,2,公交,bus,http://bus.bj.bendibao.com/zhandian/station289886.htm,Ow5fqi6DQXmgD5PGSB7QBdHF,106990,934141961
"西坝河南路",116.44137,39.96414,35,2,2,公交,bus,http://bus.bj.bendibao.com/zhandian/station289885.htm,Ow5fqi6DQXmgD5PGSB7QBdHF,106990,934141976
"和平西桥南",116.42443,39.97357,8,2,2,公交,bus,http://bus.bj.bendibao.com/zhandian/station289668.htm,Ow5fqi6DQXmgD5PGSB7QBdHF,106990,934141991
"花市路口北",116.42511,39.90388,34,2,2,公交,bus,http://bus.bj.bendibao.com/zhandian/station288979.htm,Ow5fqi6DQXmgD5PGSB7QBdHF,106990,934142001
"北京儿童医院",116.36302,39.91815,11,1,2,公交,bus,http://bus.bj.bendibao.com/zhandian/station289402.htm,Ow5fqi6DQXmgD5PGSB7QBdHF,106990,934142009
"新文化街西口",116.36982,39.91158,37,2,2,公交,bus,http://bus.bj.bendibao.com/zhandian/station288883.htm,Ow5fqi6DQXmgD5PGSB7QBdHF,106990,934142016
"柳芳东口",116.44532,39.96066,10,2,2,公交,bus,http://bus.bj.bendibao.com/zhandian/station289883.htm,Ow5fqi6DQXmgD5PGSB7QBdHF,106990,934142027
"安华桥北",116.40086,39.97678,36,3,2,公交,bus,http://bus.bj.bendibao.com/zhandian/station289143.htm,Ow5fqi6DQXmgD5PGSB7QBdHF,106990,934142041
"柳芳南里",116.4464,39.9597,14,3,2,公交,bus,http://bus.bj.bendibao.com/zhandian/station291843.htm,Ow5fqi6DQXmgD5PGSB7QBdHF,106990,934142049
"和平里商场",116.43136,39.97108,39,3,2,公交,bus,http://bus.bj.bendibao.com/zhandian/station288992.htm,Ow5fqi6DQXmgD5PGSB7QBdHF,106990,934142058
"文慧桥南",116.36184,39.95822,12,2,2,公交,bus,http://bus.bj.bendibao.com/zhandian/station289145.htm,Ow5fqi6DQXmgD5PGSB7QBdHF,106990,934142072
"花市路口南",116.42509,39.90316,38,3,2,公交,bus,http://bus.bj.bendibao.com/zhandian/station289198.htm,Ow5fqi6DQXmgD5PGSB7QBdHF,106990,934142082
"琉璃厂",116.39114,39.90111,48,3,2,公交,bus,http://bus.bj.bendibao.com/zhandian/station288879.htm,Ow5fqi6DQXmgD5PGSB7QBdHF,106990,934142096
"西直门外南路",116.35443,39.94277,24,3,2,公交,bus,http://bus.bj.bendibao.com/zhandian/station290886.htm,Ow5fqi6DQXmgD5PGSB7QBdHF,106990,934142106
"安贞桥北",116.41395,39.97699,47,3,2,公交,bus,http://bus.bj.bendibao.com/zhandian/station289096.htm,Ow5fqi6DQXmgD5PGSB7QBdHF,106990,934142119
"西直门外",116.3548,39.94528,23,2,2,公交,bus,http://bus.bj.bendibao.com/zhandian/station288893.htm,Ow5fqi6DQXmgD5PGSB7QBdHF,106990,934142133
"左家庄中街",116.44677,39.96071,50,1,2,公交,bus,http://bus.bj.bendibao.com/zhandian/station289923.htm,Ow5fqi6DQXmgD5PGSB7QBdHF,106990,934142149
"马甸桥西",116.38356,39.97423,26,1,2,公交,bus,http://bus.bj.bendibao.com/zhandian/station289973.htm,Ow5fqi6DQXmgD5PGSB7QBdHF,106990,934142179
"文慧桥北",116.3618,39.95961,49,3,2,公交,bus,http://bus.bj.bendibao.com/zhandian/station289134.htm,Ow5fqi6DQXmgD5PGSB7QBdHF,106990,934142210
"日坛公园",116.44901,39.91913,25,3,2,公交,bus,http://bus.bj.bendibao.com/zhandian/station292418.htm,Ow5fqi6DQXmgD5PGSB7QBdHF,106990,934142241
"北花市大街",116.43377,39.90621,3,2,2,公交,bus,http://bus.bj.bendibao.com/zhandian/station288981.htm,Ow5fqi6DQXmgD5PGSB7QBdHF,106990,934142285
"兴隆街",116.41865,39.90062,28,3,2,公交,bus,http://bus.bj.bendibao.com/zhandian/station289918.htm,Ow5fqi6DQXmgD5PGSB7QBdHF,106990,934142301
"柳芳北街",116.44264,39.96549,51,1,2,公交,bus,http://bus.bj.bendibao.com/zhandian/station289881.htm,Ow5fqi6DQXmgD5PGSB7QBdHF,106990,934142310
"宣武门外",116.38095,39.90344,27,3,2,公交,bus,http://bus.bj.bendibao.com/zhandian/station289492.htm,Ow5fqi6DQXmgD5PGSB7QBdHF,106990,934142325
"马甸桥北",116.38696,39.97593,5,3,2,公交,bus,http://bus.bj.bendibao.com/zhandian/station289496.htm,Ow5fqi6DQXmgD5PGSB7QBdHF,106990,934142344
"复兴门内",116.36482,39.91309,30,1,2,公交,bus,http://bus.bj.bendibao.com/zhandian/station288788.htm,Ow5fqi6DQXmgD5PGSB7QBdHF,106990,934142364
"儿童医院路口西",116.35901,39.91963,4,2,2,公交,bus,http://bus.bj.bendibao.com/zhandian/station289014.htm,Ow5fqi6DQXmgD5PGSB7QBdHF,106990,934142379
"北京儿童医院西门",116.35952,39.9189,29,2,2,公交,bus,http://bus.bj.bendibao.com/zhandian/station289045.htm,Ow5fqi6DQXmgD5PGSB7QBdHF,106990,934142413
"崇文三里河",116.41111,39.89885,25,3,2,公交,bus,http://bus.bj.bendibao.com/zhandian/station289166.htm,Ow5fqi6DQXmgD5PGSB7QBdHF,106990,934142425
"明光桥东",116.3641,39.96369,50,2,2,公交,bus,http://bus.bj.bendibao.com/zhandian/station289073.htm,Ow5fqi6DQXmgD5PGSB7QBdHF,106990,934142435
"北太平桥南",116.37679,39.97245,23,1,2,公交,bus,http://bus.bj.bendibao.com/zhandian/station289147.htm,Ow5fqi6DQXmgD5PGSB7QBdHF,106990,934142455
"和平西桥",116.42596,39.97528,49,2,2,公交,bus,http://bus.bj.bendibao.com/zhandian/station289958.htm,Ow5fqi6DQXmgD5PGSB7QBdHF,106990,934142471
"工人体育场(东门)",116.45694,39.93714,27,1,2,公交,bus,http://bus.bj.bendibao.com/zhandian/station289920.htm,Ow5fqi6DQXmgD5PGSB7QBdHF,106990,934142486
"杏坛路",116.36779,39.9671,52,1,2,公交,bus,http://bus.bj.bendibao.com/zhandian/station291822.htm,Ow5fqi6DQXmgD5PGSB7QBdHF,106990,934142494
"工人体育场",116.45705,39.94056,26,1,2,公交,bus,http://bus.bj.bendibao.com/zhandian/station289937.htm,Ow5fqi6DQXmgD5PGSB7QBdHF,106990,934142508
"过街楼",116.4082,39.89835,51,3,2,公交,bus,http://bus.bj.bendibao.com/zhandian/station289167.htm,Ow5fqi6DQXmgD5PGSB7QBdHF,106990,934142518
"和平西桥北",116.42442,39.97606,29,2,2,公交,bus,http://bus.bj.bendibao.com/zhandian/station289984.htm,Ow5fqi6DQXmgD5PGSB7QBdHF,106990,934142525
"羊市口",116.43047,39.90341,4,2,2,公交,bus,http://bus.bj.bendibao.com/zhandian/station288910.htm,Ow5fqi6DQXmgD5PGSB7QBdHF,106990,934142536
"桥湾",116.41515,39.899,28,3,2,公交,bus,http://bus.bj.bendibao.com/zhandian/station289165.htm,Ow5fqi6DQXmgD5PGSB7QBdHF,106990,934142547
"柳芳北里",116.44626,39.96359,3,1,2,公交,bus,http://bus.bj.bendibao.com/zhandian/station289924.htm,Ow5fqi6DQXmgD5PGSB7QBdHF,106990,934142560
"朝阳医院",116.45702,39.93299,31,2,2,公交,bus,http://bus.bj.bendibao.com/zhandian/station289399.htm,Ow5fqi6DQXmgD5PGSB7QBdHF,106990,934142574
"日坛路",116.44714,39.91442,7,1,2,公交,bus,http://bus.bj.bendibao.com/zhandian/station288794.htm,Ow5fqi6DQXmgD5PGSB7QBdHF,106990,934142589
"东便门",116.43755,39.90679,30,2,2,公交,bus,http://bus.bj.bendibao.com/zhandian/station289201.htm,Ow5fqi6DQXmgD5PGSB7QBdHF,106990,934142601
"北下关",116.35416,39.95067,6,3,2,公交,bus,http://bus.bj.bendibao.com/zhandian/station289071.htm,Ow5fqi6DQXmgD5PGSB7QBdHF,106990,934142615
"复兴门",116.36337,39.91307,16,1,2,公交,bus,http://bus.bj.bendibao.com/zhandian/station295141.htm,Ow5fqi6DQXmgD5PGSB7QBdHF,106990,934142631
"幸福三村",116.45698,39.94624,41,3,2,公交,bus,http://bus.bj.bendibao.com/zhandian/station289921.htm,Ow5fqi6DQXmgD5PGSB7QBdHF,106990,934142640
"左家庄",116.45184,39.95763,15,2,2,公交,bus,http://bus.bj.bendibao.com/zhandian/station289088.htm,Ow5fqi6DQXmgD5PGSB7QBdHF,106990,934142658
"建国门南",116.44281,39.91,40,3,2,公交,bus,http://bus.bj.bendibao.com/zhandian/station289200.htm,Ow5fqi6DQXmgD5PGSB7QBdHF,106990,934142671
"安贞里",116.41393,39.97899,18,3,2,公交,bus,http://bus.bj.bendibao.com/zhandian/station289097.htm,Ow5fqi6DQXmgD5PGSB7QBdHF,106990,934142687
"东大桥路口西",116.45635,39.92855,43,3,2,公交,bus,http://bus.bj.bendibao.com/zhandian/station289662.htm,Ow5fqi6DQXmgD5PGSB7QBdHF,106990,934142706
"水道子",116.41931,39.89921,17,1,2,公交,bus,http://bus.bj.bendibao.com/zhandian/station289164.htm,Ow5fqi6DQXmgD5PGSB7QBdHF,106990,934142717
"煤市街南口",116.40135,39.89771,42,2,2,公交,bus,http://bus.bj.bendibao.com/zhandian/station288850.htm,Ow5fqi6DQXmgD5PGSB7QBdHF,106990,934142729
"明光桥南",116.36157,39.96266,20,3,2,公交,bus,http://bus.bj.bendibao.com/zhandian/station289144.htm,Ow5fqi6DQXmgD5PGSB7QBdHF,106990,934142739
"和平东桥南",116.43127,39.97427,46,3,2,公交,bus,http://bus.bj.bendibao.com/zhandian/station288991.htm,Ow5fqi6DQXmgD5PGSB7QBdHF,106990,934142744
"珠市口西",116.40411,39.89756,19,2,2,公交,bus,http://bus.bj.bendibao.com/zhandian/station289168.htm,Ow5fqi6DQXmgD5PGSB7QBdHF,106990,934142753
"明光村",116.372058094,39.9711192667,45,3,2,公交,bus,http://bus.bj.bendibao.com/zhandian/station289064.htm,Ow5fqi6DQXmgD5PGSB7QBdHF,106990,934142771
"东大桥路口北",116.45696,39.92981,22,2,2,公交,bus,http://bus.bj.bendibao.com/zhandian/station289400.htm,Ow5fqi6DQXmgD5PGSB7QBdHF,106990,934142794
"珠市口东",116.40217,39.89745,48,3,2,公交,bus,http://bus.bj.bendibao.com/zhandian/station300155.htm,Ow5fqi6DQXmgD5PGSB7QBdHF,106990,934142813
"安贞医院",116.40847,39.97994,21,1,2,公交,bus,http://bus.bj.bendibao.com/zhandian/station291231.htm,Ow5fqi6DQXmgD5PGSB7QBdHF,106990,934142829
"交大东路南口",116.35528,39.95524,47,2,2,公交,bus,http://bus.bj.bendibao.com/zhandian/station289813.htm,Ow5fqi6DQXmgD5PGSB7QBdHF,106990,934142846
"磁器口北",116.42525,39.90011,51,3,2,公交,bus,http://bus.bj.bendibao.com/zhandian/station289197.htm,Ow5fqi6DQXmgD5PGSB7QBdHF,106990,934142857
"和平东桥",116.43012,39.97543,27,1,2,公交,bus,http://bus.bj.bendibao.com/zhandian/station289669.htm,Ow5fqi6DQXmgD5PGSB7QBdHF,106990,934142875
"珠市口南",116.40485,39.89695,50,2,2,公交,bus,http://bus.bj.bendibao.com/zhandian/station289084.htm,Ow5fqi6DQXmgD5PGSB7QBdHF,106990,934142885
"东大桥路口南",116.45694,39.92734,26,1,2,公交,bus,http://bus.bj.bendibao.com/zhandian/station289990.htm,Ow5fqi6DQXmgD5PGSB7QBdHF,106990,934142894
"展览路",116.35205,39.92896,4,2,2,公交,bus,http://bus.bj.bendibao.com/zhandian/station289042.htm,Ow5fqi6DQXmgD5PGSB7QBdHF,106990,934142905
"二里沟东口",116.35057,39.93766,29,3,2,公交,bus,http://bus.bj.bendibao.com/zhandian/station289040.htm,Ow5fqi6DQXmgD5PGSB7QBdHF,106990,934142917
"东大桥",116.45741,39.9286,52,3,2,公交,bus,http://bus.bj.bendibao.com/zhandian/station289264.htm,Ow5fqi6DQXmgD5PGSB7QBdHF,106990,934142933
"北京展览馆",116.35077,39.94288,28,3,2,公交,bus,http://bus.bj.bendibao.com/zhandian/station289039.htm,Ow5fqi6DQXmgD5PGSB7QBdHF,106990,934142948
"百万庄东口",116.35061,39.93432,6,1,2,公交,bus,http://bus.bj.bendibao.com/zhandian/station289041.htm,Ow5fqi6DQXmgD5PGSB7QBdHF,106990,934142964
"明光桥北",116.36168,39.96429,31,1,2,公交,bus,http://bus.bj.bendibao.com/zhandian/station289063.htm,Ow5fqi6DQXmgD5PGSB7QBdHF,106990,934142980
"塔园村",116.45699,39.95062,5,2,2,公交,bus,http://bus.bj.bendibao.com/zhandian/station289170.htm,Ow5fqi6DQXmgD5PGSB7QBdHF,106990,934142985
"校场口",116.38104,39.90081,30,3,2,公交,bus,http://bus.bj.bendibao.com/zhandian/station289484.htm,Ow5fqi6DQXmgD5PGSB7QBdHF,106990,934142996
"复兴门南",116.36319,39.91142,8,2,2,公交,bus,http://bus.bj.bendibao.com/zhandian/station289403.htm,Ow5fqi6DQXmgD5PGSB7QBdHF,106990,934143010
"东大桥路口东",116.45767,39.92821,33,1,2,公交,bus,http://bus.bj.bendibao.com/zhandian/station289670.htm,Ow5fqi6DQXmgD5PGSB7QBdHF,106990,934143025
"磁器口西",116.42434,39.89931,7,1,2,公交,bus,http://bus.bj.bendibao.com/zhandian/station289163.htm,Ow5fqi6DQXmgD5PGSB7QBdHF,106990,934143034
"北太平桥西",116.37442,39.97378,32,2,2,公交,bus,http://bus.bj.bendibao.com/zhandian/station289060.htm,Ow5fqi6DQXmgD5PGSB7QBdHF,106990,934143045
"长椿街路口东",116.37087,39.90541,43,1,2,公交,bus,http://bus.bj.bendibao.com/zhandian/station288925.htm,Ow5fqi6DQXmgD5PGSB7QBdHF,106990,934143056
"工人体育场东",116.45979,39.93936,18,3,2,公交,bus,http://bus.bj.bendibao.com/zhandian/station289955.htm,Ow5fqi6DQXmgD5PGSB7QBdHF,106990,934143070
"安贞西里",116.40069,39.98087,41,2,2,公交,bus,http://bus.bj.bendibao.com/zhandian/station289142.htm,Ow5fqi6DQXmgD5PGSB7QBdHF,106990,934143086
"长椿街路口北",116.36995,39.90578,17,1,2,公交,bus,http://bus.bj.bendibao.com/zhandian/station288882.htm,Ow5fqi6DQXmgD5PGSB7QBdHF,106990,934143102
"磁器口",116.4253,39.89928,45,3,2,公交,bus,http://bus.bj.bendibao.com/zhandian/station295195.htm,Ow5fqi6DQXmgD5PGSB7QBdHF,106990,934143112
"板章路",116.39961,39.89641,20,2,2,公交,bus,http://bus.bj.bendibao.com/zhandian/station288826.htm,Ow5fqi6DQXmgD5PGSB7QBdHF,106990,934143124
"天桥汽车站",116.40181,39.89626,44,2,2,公交,bus,http://bd.bendibao.com/bus/zhandian/station334396.htm,Ow5fqi6DQXmgD5PGSB7QBdHF,106990,934143135
"新源里",116.4563,39.95372,19,2,2,公交,bus,http://bus.bj.bendibao.com/zhandian/station289169.htm,Ow5fqi6DQXmgD5PGSB7QBdHF,106990,934143144
"西坝河南里",116.44449,39.96836,47,2,2,公交,bus,http://bus.bj.bendibao.com/zhandian/station290010.htm,Ow5fqi6DQXmgD5PGSB7QBdHF,106990,934143155
"幸福三村(北)",116.45915,39.94697,22,2,2,公交,bus,http://bus.bj.bendibao.com/zhandian/station292395.htm,Ow5fqi6DQXmgD5PGSB7QBdHF,106990,934143167
"明光村西站",116.36849688,39.9709358064,46,3,2,公交,bus,http://bus.bj.bendibao.com/zhandian/station289065.htm,Ow5fqi6DQXmgD5PGSB7QBdHF,106990,934143178
"月坛北街",116.35259,39.9241,21,1,2,公交,bus,http://bus.bj.bendibao.com/zhandian/station289044.htm,Ow5fqi6DQXmgD5PGSB7QBdHF,106990,934143187
"杏坛路北口",116.36768,39.97051,49,3,2,公交,bus,http://bus.bj.bendibao.com/zhandian/station291823.htm,Ow5fqi6DQXmgD5PGSB7QBdHF,106990,934143205
"长椿街",116.36978,39.90538,25,2,2,公交,bus,http://bus.bj.bendibao.com/zhandian/station295153.htm,Ow5fqi6DQXmgD5PGSB7QBdHF,106990,934143222
"小市口",116.43406,39.90225,48,2,2,公交,bus,http://bus.bj.bendibao.com/zhandian/station288909.htm,Ow5fqi6DQXmgD5PGSB7QBdHF,106990,934143246
"礼士路南口",116.35928,39.91399,24,3,2,公交,bus,http://bus.bj.bendibao.com/zhandian/station289046.htm,Ow5fqi6DQXmgD5PGSB7QBdHF,106990,934143268
"芳草地",116.45697,39.92381,19,2,2,公交,bus,http://bus.bj.bendibao.com/zhandian/station289263.htm,Ow5fqi6DQXmgD5PGSB7QBdHF,106990,934143286
"光熙门北里",116.44243,39.97029,44,2,2,公交,bus,http://bus.bj.bendibao.com/zhandian/station290009.htm,Ow5fqi6DQXmgD5PGSB7QBdHF,106990,934143302
"七圣南路",116.4474,39.96637,18,3,2,公交,bus,http://bus.bj.bendibao.com/zhandian/station290011.htm,Ow5fqi6DQXmgD5PGSB7QBdHF,106990,934143321
"安贞西里北门",116.40251,39.98158,43,2,2,公交,bus,http://bus.bj.bendibao.com/zhandian/station291232.htm,Ow5fqi6DQXmgD5PGSB7QBdHF,106990,934143344
"国际展览中心",116.44787,39.96603,21,3,2,公交,bus,http://bus.bj.bendibao.com/zhandian/station289085.htm,Ow5fqi6DQXmgD5PGSB7QBdHF,106990,934143361
"磁器口南",116.42535,39.89858,47,2,2,公交,bus,http://bus.bj.bendibao.com/zhandian/station289202.htm,Ow5fqi6DQXmgD5PGSB7QBdHF,106990,934143368
"万明路",116.39624,39.89606,20,1,2,公交,bus,http://bus.bj.bendibao.com/zhandian/station288825.htm,Ow5fqi6DQXmgD5PGSB7QBdHF,106990,934143383
"明光村",116.35931,39.96382,46,2,2,公交,bus,http://bus.bj.bendibao.com/zhandian/station289064.htm,Ow5fqi6DQXmgD5PGSB7QBdHF,106990,934143391
"静安里",116.452,39.96198,23,1,2,公交,bus,http://bus.bj.bendibao.com/zhandian/station289882.htm,Ow5fqi6DQXmgD5PGSB7QBdHF,106990,934143409
"新源南路西口",116.45766,39.9533,49,2,2,公交,bus,http://bus.bj.bendibao.com/zhandian/station291205.htm,Ow5fqi6DQXmgD5PGSB7QBdHF,106990,934143421
"月坛北街北站",116.35139,39.92508,22,2,2,公交,bus,http://bus.bj.bendibao.com/zhandian/station289043.htm,Ow5fqi6DQXmgD5PGSB7QBdHF,106990,934143435
"榄杆市",116.42836,39.8993,48,3,2,公交,bus,http://bus.bj.bendibao.com/zhandian/station289162.htm,Ow5fqi6DQXmgD5PGSB7QBdHF,106990,934143452
"三里屯",116.46112,39.93931,26,2,2,公交,bus,http://bus.bj.bendibao.com/zhandian/station289938.htm,Ow5fqi6DQXmgD5PGSB7QBdHF,106990,934143458
"长椿街路口西",116.36864,39.90533,51,2,2,公交,bus,http://bus.bj.bendibao.com/zhandian/station288926.htm,Ow5fqi6DQXmgD5PGSB7QBdHF,106990,934143466
"和平东桥北",116.43119,39.97706,24,1,2,公交,bus,http://bus.bj.bendibao.com/zhandian/station289558.htm,Ow5fqi6DQXmgD5PGSB7QBdHF,106990,934143477
"虎坊桥路口东",116.39264,39.89586,50,3,2,公交,bus,http://bus.bj.bendibao.com/zhandian/station288824.htm,Ow5fqi6DQXmgD5PGSB7QBdHF,106990,934143484
"北京交通大学东门",116.35432,39.95888,10,1,2,公交,bus,http://bus.bj.bendibao.com/zhandian/station289786.htm,Ow5fqi6DQXmgD5PGSB7QBdHF,106990,934143495
"阜外西口",116.34918,39.92893,36,2,2,公交,bus,http://bus.bj.bendibao.com/zhandian/station289368.htm,Ow5fqi6DQXmgD5PGSB7QBdHF,106990,934143504
"关东店北街西口",116.46042,39.92901,9,1,2,公交,bus,http://bus.bj.bendibao.com/zhandian/station289989.htm,Ow5fqi6DQXmgD5PGSB7QBdHF,106990,934143518
"幸福三村北",116.46088,39.94691,35,1,2,公交,bus,http://bus.bj.bendibao.com/zhandian/station290053.htm,Ow5fqi6DQXmgD5PGSB7QBdHF,106990,934143530
"北太平桥北",116.37671,39.97693,12,2,2,公交,bus,http://bus.bj.bendibao.com/zhandian/station289076.htm,Ow5fqi6DQXmgD5PGSB7QBdHF,106990,934143540
"五路居",116.41383,39.98223,38,1,2,公交,bus,http://bus.bj.bendibao.com/zhandian/station289893.htm,Ow5fqi6DQXmgD5PGSB7QBdHF,106990,934143549
"二七剧场路北口",116.35295,39.91967,11,3,2,公交,bus,http://bus.bj.bendibao.com/zhandian/station289015.htm,Ow5fqi6DQXmgD5PGSB7QBdHF,106990,934143558
"百万庄中街",116.34763,39.93381,37,1,2,公交,bus,http://bus.bj.bendibao.com/zhandian/station289629.htm,Ow5fqi6DQXmgD5PGSB7QBdHF,106990,934143568
"祈年大街南口",116.41904,39.8957,15,3,2,公交,bus,http://bus.bj.bendibao.com/zhandian/station289917.htm,Ow5fqi6DQXmgD5PGSB7QBdHF,106990,934143581
"左家庄北里",116.45372,39.962,40,3,2,公交,bus,http://bus.bj.bendibao.com/zhandian/station290043.htm,Ow5fqi6DQXmgD5PGSB7QBdHF,106990,934143593
"虎坊桥路口西",116.39,39.89575,13,2,2,公交,bus,http://bus.bj.bendibao.com/zhandian/station288851.htm,Ow5fqi6DQXmgD5PGSB7QBdHF,106990,934143605
"三元桥(机场高速)",116.45595,39.95906,39,2,2,公交,bus,http://bus.bj.bendibao.com/zhandian/station293445.htm,Ow5fqi6DQXmgD5PGSB7QBdHF,106990,934143617
"光熙门",116.43893,39.97439,17,1,2,公交,bus,http://bus.bj.bendibao.com/zhandian/station295248.htm,Ow5fqi6DQXmgD5PGSB7QBdHF,106990,934143627
"东花市大街",116.43418,39.90045,42,3,2,公交,bus,http://bus.bj.bendibao.com/zhandian/station288908.htm,Ow5fqi6DQXmgD5PGSB7QBdHF,106990,934143637
"芳草地南",116.45697,39.91958,16,1,2,公交,bus,http://bus.bj.bendibao.com/zhandian/station289262.htm,Ow5fqi6DQXmgD5PGSB7QBdHF,106990,934143650
"真武庙",116.35926,39.91118,41,3,2,公交,bus,http://bus.bj.bendibao.com/zhandian/station289047.htm,Ow5fqi6DQXmgD5PGSB7QBdHF,106990,934143663
"国家工商总局",116.35166,39.92086,37,2,2,公交,bus,http://bus.bj.bendibao.com/zhandian/station289221.htm,Ow5fqi6DQXmgD5PGSB7QBdHF,106990,934143674
"地铁北土城站",116.40436,39.98329,12,2,2,公交,bus,http://bus.bj.bendibao.com/zhandian/station288848.htm,Ow5fqi6DQXmgD5PGSB7QBdHF,106990,934143686
"金鱼池",116.41049,39.89418,35,2,2,公交,bus,http://bus.bj.bendibao.com/zhandian/station288858.htm,Ow5fqi6DQXmgD5PGSB7QBdHF,106990,934143701
"安贞医院北站",116.40733,39.98327,11,1,2,公交,bus,http://bus.bj.bendibao.com/zhandian/station291063.htm,Ow5fqi6DQXmgD5PGSB7QBdHF,106990,934143710
"北土城",116.40068,39.98326,39,1,2,公交,bus,http://bus.bj.bendibao.com/zhandian/station295216.htm,Ow5fqi6DQXmgD5PGSB7QBdHF,106990,934143724
"虎坊桥路口南",116.39122,39.89508,14,3,2,公交,bus,http://bus.bj.bendibao.com/zhandian/station288878.htm,Ow5fqi6DQXmgD5PGSB7QBdHF,106990,934143741
"左家庄东街",116.4552,39.96105,38,3,2,公交,bus,http://bus.bj.bendibao.com/zhandian/station289922.htm,Ow5fqi6DQXmgD5PGSB7QBdHF,106990,934143759
"北土城西路东口",116.39928,39.98328,13,3,2,公交,bus,http://bus.bj.bendibao.com/zhandian/station288847.htm,Ow5fqi6DQXmgD5PGSB7QBdHF,106990,934143772
"太阳宫桥(西行)",116.43777,39.9757,41,1,2,公交,bus,http://bus.bj.bendibao.com/zhandian/station290006.htm,Ow5fqi6DQXmgD5PGSB7QBdHF,106990,934143781
"北京制药厂",116.45747,39.91913,16,1,2,公交,bus,http://bus.bj.bendibao.com/zhandian/station292413.htm,Ow5fqi6DQXmgD5PGSB7QBdHF,106990,934143797
"天坛北门",116.4171,39.89459,40,2,2,公交,bus,http://bus.bj.bendibao.com/zhandian/station288857.htm,Ow5fqi6DQXmgD5PGSB7QBdHF,106990,934143803
"北土城东路",116.4121,39.98335,15,2,2,公交,bus,http://bus.bj.bendibao.com/zhandian/station289833.htm,Ow5fqi6DQXmgD5PGSB7QBdHF,106990,934143816
"安贞门",116.41239,39.98332,43,2,2,公交,bus,http://bus.bj.bendibao.com/zhandian/station295228.htm,Ow5fqi6DQXmgD5PGSB7QBdHF,106990,934143831
"太阳宫桥(东行)",116.43864,39.97544,19,2,2,公交,bus,http://bus.bj.bendibao.com/zhandian/station290007.htm,Ow5fqi6DQXmgD5PGSB7QBdHF,106990,934143841
"太阳宫桥",116.4388,39.97539,42,3,2,公交,bus,http://bus.bj.bendibao.com/zhandian/station290967.htm,Ow5fqi6DQXmgD5PGSB7QBdHF,106990,934143852
"明光村西站",116.35574,39.96371,18,3,2,公交,bus,http://bus.bj.bendibao.com/zhandian/station289065.htm,Ow5fqi6DQXmgD5PGSB7QBdHF,106990,934143864
"工商总局南站",116.35176,39.91883,28,1,2,公交,bus,http://bus.bj.bendibao.com/zhandian/station289369.htm,Ow5fqi6DQXmgD5PGSB7QBdHF,106990,934143877
"培新街",116.43517,39.8997,3,3,2,公交,bus,http://bus.bj.bendibao.com/zhandian/station288905.htm,Ow5fqi6DQXmgD5PGSB7QBdHF,106990,934143890
"七圣路",116.44231,39.97386,27,3,2,公交,bus,http://bus.bj.bendibao.com/zhandian/station290008.htm,Ow5fqi6DQXmgD5PGSB7QBdHF,106990,934143901
"三里河东口",116.3509,39.91965,52,1,2,公交,bus,http://bus.bj.bendibao.com/zhandian/station289016.htm,Ow5fqi6DQXmgD5PGSB7QBdHF,106990,934143914
"果子巷",116.38487,39.89558,30,3,2,公交,bus,http://bus.bj.bendibao.com/zhandian/station288823.htm,Ow5fqi6DQXmgD5PGSB7QBdHF,106990,934143930
"天桥路口东",116.40595,39.89293,5,1,2,公交,bus,http://bus.bj.bendibao.com/zhandian/station288859.htm,Ow5fqi6DQXmgD5PGSB7QBdHF,106990,934143940
"关东店",116.46205,39.92655,29,1,2,公交,bus,http://bus.bj.bendibao.com/zhandian/station289861.htm,Ow5fqi6DQXmgD5PGSB7QBdHF,106990,934143952
"永安里东街(建外soho)",116.45868,39.91916,4,2,2,公交,bus,http://bus.bj.bendibao.com/zhandian/station300154.htm,Ow5fqi6DQXmgD5PGSB7QBdHF,106990,934143963
"天桥路口西",116.40407,39.89278,32,1,2,公交,bus,http://bus.bj.bendibao.com/zhandian/station289529.htm,Ow5fqi6DQXmgD5PGSB7QBdHF,106990,934143970
"樱花园西街",116.42502,39.98178,8,1,2,公交,bus,http://bus.bj.bendibao.com/zhandian/station290089.htm,Ow5fqi6DQXmgD5PGSB7QBdHF,106990,934143983
"健德门桥东",116.38954,39.98303,31,3,2,公交,bus,http://bus.bj.bendibao.com/zhandian/station289141.htm,Ow5fqi6DQXmgD5PGSB7QBdHF,106990,934144005
"南礼士路",116.35524,39.91302,7,1,2,公交,bus,http://bus.bj.bendibao.com/zhandian/station288787.htm,Ow5fqi6DQXmgD5PGSB7QBdHF,106990,934144019
"太阳宫桥北",116.4382,39.97676,34,2,2,公交,bus,http://bus.bj.bendibao.com/zhandian/station292038.htm,Ow5fqi6DQXmgD5PGSB7QBdHF,106990,934144030
"永安里路口西",116.4555,39.91427,10,3,2,公交,bus,http://bus.bj.bendibao.com/zhandian/station288795.htm,Ow5fqi6DQXmgD5PGSB7QBdHF,106990,934144045
"健德门",116.38784,39.98283,33,2,2,公交,bus,http://bus.bj.bendibao.com/zhandian/station295095.htm,Ow5fqi6DQXmgD5PGSB7QBdHF,106990,934144053
"友谊医院东",116.40027,39.89268,9,3,2,公交,bus,http://bus.bj.bendibao.com/zhandian/station288860.htm,Ow5fqi6DQXmgD5PGSB7QBdHF,106990,934144071
"小关东里",116.41913,39.98339,4,2,2,公交,bus,http://bus.bj.bendibao.com/zhandian/station291839.htm,Ow5fqi6DQXmgD5PGSB7QBdHF,106990,934144082
"中苑宾馆",116.34789,39.9531,30,2,2,公交,bus,http://bus.bj.bendibao.com/zhandian/station295288.htm,Ow5fqi6DQXmgD5PGSB7QBdHF,106990,934144094
"友谊医院",116.39871,39.89268,3,1,2,公交,bus,http://bus.bj.bendibao.com/zhandian/station289049.htm,Ow5fqi6DQXmgD5PGSB7QBdHF,106990,934144107
"交大东路北口",116.35328,39.96238,29,3,2,公交,bus,http://bus.bj.bendibao.com/zhandian/station289814.htm,Ow5fqi6DQXmgD5PGSB7QBdHF,106990,934144118
"动物园",116.34515,39.94399,6,1,2,公交,bus,http://bus.bj.bendibao.com/zhandian/station289238.htm,Ow5fqi6DQXmgD5PGSB7QBdHF,106990,934144131
"北京交通大学",116.34773,39.95315,32,1,2,公交,bus,http://bus.bj.bendibao.com/zhandian/station289070.htm,Ow5fqi6DQXmgD5PGSB7QBdHF,106990,934144142
"菜市口北",116.38087,39.89612,5,1,2,公交,bus,http://bus.bj.bendibao.com/zhandian/station289485.htm,Ow5fqi6DQXmgD5PGSB7QBdHF,106990,934144151
"动物园(枢纽站)",116.3449,39.94335,31,1,2,公交,bus,http://bus.bj.bendibao.com/zhandian/station288894.htm,Ow5fqi6DQXmgD5PGSB7QBdHF,106990,934144163
"郝家湾",116.34458,39.93809,9,1,2,公交,bus,http://bus.bj.bendibao.com/zhandian/station289961.htm,Ow5fqi6DQXmgD5PGSB7QBdHF,106990,934144179
"华都饭店",116.46172,39.95395,34,3,2,公交,bus,http://bus.bj.bendibao.com/zhandian/station291204.htm,Ow5fqi6DQXmgD5PGSB7QBdHF,106990,934144195
"中纺街",116.4649,39.93409,7,2,2,公交,bus,http://bus.bj.bendibao.com/zhandian/station289398.htm,Ow5fqi6DQXmgD5PGSB7QBdHF,106990,934144219
"永安里路口北",116.45697,39.9152,33,3,2,公交,bus,http://bus.bj.bendibao.com/zhandian/station289261.htm,Ow5fqi6DQXmgD5PGSB7QBdHF,106990,934144247
"健德门桥西",116.38625,39.98292,11,2,2,公交,bus,http://bus.bj.bendibao.com/zhandian/station289140.htm,Ow5fqi6DQXmgD5PGSB7QBdHF,106990,934144285
"槐柏树街东口",116.36989,39.90042,36,1,2,公交,bus,http://bus.bj.bendibao.com/zhandian/station288942.htm,Ow5fqi6DQXmgD5PGSB7QBdHF,106990,934144318
"天桥",116.40501,39.89191,10,1,2,公交,bus,http://bus.bj.bendibao.com/zhandian/station288877.htm,Ow5fqi6DQXmgD5PGSB7QBdHF,106990,934144329
"永安路",116.39429,39.89254,35,2,2,公交,bus,http://bus.bj.bendibao.com/zhandian/station288861.htm,Ow5fqi6DQXmgD5PGSB7QBdHF,106990,934144345
"皂君庙",116.360294621,39.9705625258,45,1,2,公交,bus,http://bus.bj.bendibao.com/zhandian/station289067.htm,Ow5fqi6DQXmgD5PGSB7QBdHF,106990,934144355
"三元桥西站",116.45753,39.96195,21,3,2,公交,bus,http://bus.bj.bendibao.com/zhandian/station289087.htm,Ow5fqi6DQXmgD5PGSB7QBdHF,106990,934144365
"红桥路口西",116.42432,39.89409,44,1,2,公交,bus,http://bus.bj.bendibao.com/zhandian/station288856.htm,Ow5fqi6DQXmgD5PGSB7QBdHF,106990,934144381
"西坝河(南行)",116.44473,39.97421,20,3,2,公交,bus,http://bus.bj.bendibao.com/zhandian/station290014.htm,Ow5fqi6DQXmgD5PGSB7QBdHF,106990,934144392
"地铁惠新西街南口站",116.42426,39.9833,48,1,2,公交,bus,http://bus.bj.bendibao.com/zhandian/station291840.htm,Ow5fqi6DQXmgD5PGSB7QBdHF,106990,934144408
"西坝河",116.44634,39.97328,23,1,2,公交,bus,http://bus.bj.bendibao.com/zhandian/station290005.htm,Ow5fqi6DQXmgD5PGSB7QBdHF,106990,934144419
"健德门桥北",116.38768,39.98394,46,2,2,公交,bus,http://bus.bj.bendibao.com/zhandian/station291236.htm,Ow5fqi6DQXmgD5PGSB7QBdHF,106990,934144432
"蓟门桥东",116.36355,39.97355,22,2,2,公交,bus,http://bus.bj.bendibao.com/zhandian/station289061.htm,Ow5fqi6DQXmgD5PGSB7QBdHF,106990,934144441
"红桥路口北",116.42561,39.89421,50,2,2,公交,bus,http://bus.bj.bendibao.com/zhandian/station289196.htm,Ow5fqi6DQXmgD5PGSB7QBdHF,106990,934144459
"菜市口西",116.37999,39.89541,25,3,2,公交,bus,http://bus.bj.bendibao.com/zhandian/station288822.htm,Ow5fqi6DQXmgD5PGSB7QBdHF,106990,934144469
"西坝河(北行)",116.4466,39.9733,49,3,2,公交,bus,http://bus.bj.bendibao.com/zhandian/station290015.htm,Ow5fqi6DQXmgD5PGSB7QBdHF,106990,934144479
"蓟门桥南",116.3598,39.97119,24,2,2,公交,bus,http://bus.bj.bendibao.com/zhandian/station289062.htm,Ow5fqi6DQXmgD5PGSB7QBdHF,106990,934144491
"牡丹园",116.37642,39.98084,52,1,2,公交,bus,http://bus.bj.bendibao.com/zhandian/station289059.htm,Ow5fqi6DQXmgD5PGSB7QBdHF,106990,934144503
"西便门外",116.35871,39.90696,27,2,2,公交,bus,http://bus.bj.bendibao.com/zhandian/station289116.htm,Ow5fqi6DQXmgD5PGSB7QBdHF,106990,934144516
"牡丹园西",116.37227,39.97908,51,1,2,公交,bus,http://bus.bj.bendibao.com/zhandian/station289138.htm,Ow5fqi6DQXmgD5PGSB7QBdHF,106990,934144532
"永安里",116.45792,39.91427,26,3,2,公交,bus,http://bus.bj.bendibao.com/zhandian/station295145.htm,Ow5fqi6DQXmgD5PGSB7QBdHF,106990,934144542
"菜市口",116.37834,39.89543,44,3,2,公交,bus,http://bus.bj.bendibao.com/zhandian/station295175.htm,Ow5fqi6DQXmgD5PGSB7QBdHF,106990,934144549
"长虹桥西",116.46682,39.93946,20,3,2,公交,bus,http://bus.bj.bendibao.com/zhandian/station289939.htm,Ow5fqi6DQXmgD5PGSB7QBdHF,106990,934144565
"三里河东路南口",116.35108,39.91466,43,3,2,公交,bus,http://bus.bj.bendibao.com/zhandian/station289222.htm,Ow5fqi6DQXmgD5PGSB7QBdHF,106990,934144582
"静安东街",116.45613,39.96564,19,1,2,公交,bus,http://bus.bj.bendibao.com/zhandian/station290042.htm,Ow5fqi6DQXmgD5PGSB7QBdHF,106990,934144596
"花园路",116.37219,39.97944,46,1,2,公交,bus,http://bus.bj.bendibao.com/zhandian/station290534.htm,Ow5fqi6DQXmgD5PGSB7QBdHF,106990,934144613
"安化楼",116.44105,39.89967,22,2,2,公交,bus,http://bus.bj.bendibao.com/zhandian/station288906.htm,Ow5fqi6DQXmgD5PGSB7QBdHF,106990,934144629
"东大桥东",116.46578,39.92892,45,1,2,公交,bus,http://bus.bj.bendibao.com/zhandian/station294845.htm,Ow5fqi6DQXmgD5PGSB7QBdHF,106990,934144638
"关东店北街东口",116.4658,39.92892,21,2,2,公交,bus,http://bus.bj.bendibao.com/zhandian/station289661.htm,Ow5fqi6DQXmgD5PGSB7QBdHF,106990,934144650
"白桥大街",116.4458,39.9025,48,3,2,公交,bus,http://bus.bj.bendibao.com/zhandian/station288907.htm,Ow5fqi6DQXmgD5PGSB7QBdHF,106990,934144663
"蓟门桥",116.36137,39.97325,24,3,2,公交,bus,http://bus.bj.bendibao.com/zhandian/station289135.htm,Ow5fqi6DQXmgD5PGSB7QBdHF,106990,934144669
"西便门",116.36156,39.9038,47,1,2,公交,bus,http://bus.bj.bendibao.com/zhandian/station289225.htm,Ow5fqi6DQXmgD5PGSB7QBdHF,106990,934144687
"静安庄",116.45488,39.96757,23,3,2,公交,bus,http://bus.bj.bendibao.com/zhandian/station289086.htm,Ow5fqi6DQXmgD5PGSB7QBdHF,106990,934144700
"幸福大街",116.43602,39.89683,51,3,2,公交,bus,http://bus.bj.bendibao.com/zhandian/station288904.htm,Ow5fqi6DQXmgD5PGSB7QBdHF,106990,934144714
"福长街",116.39966,39.89049,26,2,2,公交,bus,http://bus.bj.bendibao.com/zhandian/station289050.htm,Ow5fqi6DQXmgD5PGSB7QBdHF,106990,934144731
"甘家口东",116.34334,39.9285,50,3,2,公交,bus,http://bus.bj.bendibao.com/zhandian/station289367.htm,Ow5fqi6DQXmgD5PGSB7QBdHF,106990,934144740
"皂君庙东站",116.35101,39.96375,25,2,2,公交,bus,http://bus.bj.bendibao.com/zhandian/station289066.htm,Ow5fqi6DQXmgD5PGSB7QBdHF,106990,934144749
"工会大楼",116.35122,39.91299,35,1,2,公交,bus,http://bus.bj.bendibao.com/zhandian/station288786.htm,Ow5fqi6DQXmgD5PGSB7QBdHF,106990,934144762
"牡丹园东",116.37814,39.98265,11,3,2,公交,bus,http://bus.bj.bendibao.com/zhandian/station289139.htm,Ow5fqi6DQXmgD5PGSB7QBdHF,106990,934144778
"北纬路东口",116.40277,39.88997,34,3,2,公交,bus,http://bus.bj.bendibao.com/zhandian/station289897.htm,Ow5fqi6DQXmgD5PGSB7QBdHF,106990,934144788
"惠新西街南口",116.42392,39.98511,10,2,2,公交,bus,http://bus.bj.bendibao.com/zhandian/station289985.htm,Ow5fqi6DQXmgD5PGSB7QBdHF,106990,934144801
"中华民族园",116.40095,39.98745,37,3,2,公交,bus,http://bus.bj.bendibao.com/zhandian/station291233.htm,Ow5fqi6DQXmgD5PGSB7QBdHF,106990,934144812
"长虹桥南",116.46833,39.93827,13,3,2,公交,bus,http://bus.bj.bendibao.com/zhandian/station290764.htm,Ow5fqi6DQXmgD5PGSB7QBdHF,106990,934144822
"天桥汽车站",116.39986,39.88984,36,3,2,公交,bus,http://bus.bj.bendibao.com/zhandian/station293090.htm,Ow5fqi6DQXmgD5PGSB7QBdHF,106990,934144833
"中日医院",116.431,39.98324,12,3,2,公交,bus,http://bus.bj.bendibao.com/zhandian/station289557.htm,Ow5fqi6DQXmgD5PGSB7QBdHF,106990,934144846
"真武庙四里",116.35423,39.9088,40,1,2,公交,bus,http://bus.bj.bendibao.com/zhandian/station289725.htm,Ow5fqi6DQXmgD5PGSB7QBdHF,106990,934144859
"白家庄",116.46826,39.93466,15,1,2,公交,bus,http://bus.bj.bendibao.com/zhandian/station289397.htm,Ow5fqi6DQXmgD5PGSB7QBdHF,106990,934144874
"华严北里",116.39416,39.98707,39,3,2,公交,bus,http://bus.bj.bendibao.com/zhandian/station289495.htm,Ow5fqi6DQXmgD5PGSB7QBdHF,106990,934144886
"农业展览馆",116.46845,39.94385,14,3,2,公交,bus,http://bus.bj.bendibao.com/zhandian/station290058.htm,Ow5fqi6DQXmgD5PGSB7QBdHF,106990,934144895
"长虹桥北",116.46875,39.94116,42,2,2,公交,bus,http://bus.bj.bendibao.com/zhandian/station295306.htm,Ow5fqi6DQXmgD5PGSB7QBdHF,106990,934144905
"广义街",116.36326,39.90105,17,1,2,公交,bus,http://bus.bj.bendibao.com/zhandian/station292553.htm,Ow5fqi6DQXmgD5PGSB7QBdHF,106990,934144915
"呼家楼西",116.46653,39.9253,41,2,2,公交,bus,http://bus.bj.bendibao.com/zhandian/station289860.htm,Ow5fqi6DQXmgD5PGSB7QBdHF,106990,934144924
"北纬路",116.39566,39.88971,16,1,2,公交,bus,http://bus.bj.bendibao.com/zhandian/station289528.htm,Ow5fqi6DQXmgD5PGSB7QBdHF,106990,934144936
"百万庄",116.34057,39.93737,12,2,2,公交,bus,http://bus.bj.bendibao.com/zhandian/station289873.htm,Ow5fqi6DQXmgD5PGSB7QBdHF,106990,934144946
"蓟门桥北",116.36132,39.97508,37,2,2,公交,bus,http://bus.bj.bendibao.com/zhandian/station289136.htm,Ow5fqi6DQXmgD5PGSB7QBdHF,106990,934144953
"对外经贸大学南",116.43266,39.9832,11,3,2,公交,bus,http://bus.bj.bendibao.com/zhandian/station291841.htm,Ow5fqi6DQXmgD5PGSB7QBdHF,106990,934144964
"甘家口大厦",116.34072,39.93441,36,1,2,公交,bus,http://bus.bj.bendibao.com/zhandian/station289872.htm,Ow5fqi6DQXmgD5PGSB7QBdHF,106990,934144978
"宣武医院",116.37017,39.89683,14,3,2,公交,bus,http://bus.bj.bendibao.com/zhandian/station288943.htm,Ow5fqi6DQXmgD5PGSB7QBdHF,106990,934144992
"曙光里南口",116.45481,39.96991,39,2,2,公交,bus,http://bus.bj.bendibao.com/zhandian/station290041.htm,Ow5fqi6DQXmgD5PGSB7QBdHF,106990,934145003
"蓟门桥西(东行)",116.35823,39.97318,13,1,2,公交,bus,http://bus.bj.bendibao.com/zhandian/station289816.htm,Ow5fqi6DQXmgD5PGSB7QBdHF,106990,934145011
"二里沟",116.34015,39.94073,38,3,2,公交,bus,http://bus.bj.bendibao.com/zhandian/station289874.htm,Ow5fqi6DQXmgD5PGSB7QBdHF,106990,934145029
"甘家口北",116.34117,39.92926,16,3,2,公交,bus,http://bus.bj.bendibao.com/zhandian/station289869.htm,Ow5fqi6DQXmgD5PGSB7QBdHF,106990,934145037
"奥体东门",116.41376,39.98802,42,3,2,公交,bus,http://bus.bj.bendibao.com/zhandian/station289098.htm,Ow5fqi6DQXmgD5PGSB7QBdHF,106990,934145052
"虎坊路",116.39137,39.88979,15,3,2,公交,bus,http://bus.bj.bendibao.com/zhandian/station289031.htm,Ow5fqi6DQXmgD5PGSB7QBdHF,106990,934145060
"蓟门桥西",116.35826,39.97343,41,1,2,公交,bus,http://bus.bj.bendibao.com/zhandian/station289746.htm,Ow5fqi6DQXmgD5PGSB7QBdHF,106990,934145073
"西坝河北里",116.44766,39.97614,18,1,2,公交,bus,http://bus.bj.bendibao.com/zhandian/station290004.htm,Ow5fqi6DQXmgD5PGSB7QBdHF,106990,934145086
"广渠门内",116.44518,39.89951,44,1,2,公交,bus,http://bus.bj.bendibao.com/zhandian/station288978.htm,Ow5fqi6DQXmgD5PGSB7QBdHF,106990,934145094
"燕莎桥西",116.46633,39.95456,17,2,2,公交,bus,http://bus.bj.bendibao.com/zhandian/station291284.htm,Ow5fqi6DQXmgD5PGSB7QBdHF,106990,934145103
"蓟门桥西(西行)",116.35813,39.97345,43,2,2,公交,bus,http://bus.bj.bendibao.com/zhandian/station289817.htm,Ow5fqi6DQXmgD5PGSB7QBdHF,106990,934145110
"长虹桥东",116.4698,39.93927,3,1,2,公交,bus,http://bus.bj.bendibao.com/zhandian/station290121.htm,Ow5fqi6DQXmgD5PGSB7QBdHF,106990,934145151
"三元桥",116.46158,39.96308,28,1,2,公交,bus,http://bus.bj.bendibao.com/zhandian/station290056.htm,Ow5fqi6DQXmgD5PGSB7QBdHF,106990,934145159
"天坛西门",116.40521,39.88844,52,2,2,公交,bus,http://bus.bj.bendibao.com/zhandian/station288806.htm,Ow5fqi6DQXmgD5PGSB7QBdHF,106990,934145185
"光华桥西",116.46487,39.91916,27,2,2,公交,bus,http://bus.bj.bendibao.com/zhandian/station292414.htm,Ow5fqi6DQXmgD5PGSB7QBdHF,106990,934145201
"三元东桥西",116.46467,39.95872,5,3,2,公交,bus,http://bus.bj.bendibao.com/zhandian/station291203.htm,Ow5fqi6DQXmgD5PGSB7QBdHF,106990,934145219
"法华寺",116.42697,39.8913,31,3,2,公交,bus,http://bus.bj.bendibao.com/zhandian/station288855.htm,Ow5fqi6DQXmgD5PGSB7QBdHF,106990,934145246
"金五星百货城",116.35327,39.96963,4,1,2,公交,bus,http://bus.bj.bendibao.com/zhandian/station289745.htm,Ow5fqi6DQXmgD5PGSB7QBdHF,106990,934145285
"亮马桥",116.46848,39.95038,30,1,2,公交,bus,http://bus.bj.bendibao.com/zhandian/station290057.htm,Ow5fqi6DQXmgD5PGSB7QBdHF,106990,934145301
"民族园路",116.3992,39.98894,7,2,2,公交,bus,http://bus.bj.bendibao.com/zhandian/station292304.htm,Ow5fqi6DQXmgD5PGSB7QBdHF,106990,934145320
"大柳树南站",116.34336,39.95638,33,1,2,公交,bus,http://bus.bj.bendibao.com/zhandian/station289069.htm,Ow5fqi6DQXmgD5PGSB7QBdHF,106990,934145323
"牛街路口东",116.37113,39.89525,6,1,2,公交,bus,http://bus.bj.bendibao.com/zhandian/station288868.htm,Ow5fqi6DQXmgD5PGSB7QBdHF,106990,934145331
"皂君庙",116.34751,39.96347,32,3,2,公交,bus,http://bus.bj.bendibao.com/zhandian/station289067.htm,Ow5fqi6DQXmgD5PGSB7QBdHF,106990,934145348
"亮马大厦",116.46856,39.95098,9,3,2,公交,bus,http://bus.bj.bendibao.com/zhandian/station300143.htm,Ow5fqi6DQXmgD5PGSB7QBdHF,106990,934145372
"二里沟西口",116.33896,39.93812,35,2,2,公交,bus,http://bus.bj.bendibao.com/zhandian/station289952.htm,Ow5fqi6DQXmgD5PGSB7QBdHF,106990,934145386
"天宁寺桥东",116.35732,39.90352,8,1,2,公交,bus,http://bus.bj.bendibao.com/zhandian/station289425.htm,Ow5fqi6DQXmgD5PGSB7QBdHF,106990,934145397
"呼家楼北",116.46835,39.92539,34,1,2,公交,bus,http://bus.bj.bendibao.com/zhandian/station289943.htm,Ow5fqi6DQXmgD5PGSB7QBdHF,106990,934145414
"钓鱼台",116.34127,39.92473,29,3,2,公交,bus,http://bus.bj.bendibao.com/zhandian/station289950.htm,Ow5fqi6DQXmgD5PGSB7QBdHF,106990,934145429
"民族园西路",116.39318,39.98866,5,3,2,公交,bus,http://bus.bj.bendibao.com/zhandian/station289494.htm,Ow5fqi6DQXmgD5PGSB7QBdHF,106990,934145443
"南横街",116.38085,39.89119,28,3,2,公交,bus,http://bus.bj.bendibao.com/zhandian/station289486.htm,Ow5fqi6DQXmgD5PGSB7QBdHF,106990,934145450
"牡丹园北",116.37624,39.9846,4,3,2,公交,bus,http://bus.bj.bendibao.com/zhandian/station289058.htm,Ow5fqi6DQXmgD5PGSB7QBdHF,106990,934145465
"槐柏树街西口",116.35956,39.90138,31,2,2,公交,bus,http://bus.bj.bendibao.com/zhandian/station289507.htm,Ow5fqi6DQXmgD5PGSB7QBdHF,106990,934145484
"呼家楼",116.4698,39.92896,7,2,2,公交,bus,http://bus.bj.bendibao.com/zhandian/station295203.htm,Ow5fqi6DQXmgD5PGSB7QBdHF,106990,934145494
"天坛",116.40533,39.88763,30,1,2,公交,bus,http://bus.bj.bendibao.com/zhandian/station294842.htm,Ow5fqi6DQXmgD5PGSB7QBdHF,106990,934145508
"天宁寺桥北",116.35502,39.90476,6,2,2,公交,bus,http://bus.bj.bendibao.com/zhandian/station289115.htm,Ow5fqi6DQXmgD5PGSB7QBdHF,106990,934145515
"祁家豁子",116.38653,39.98795,34,3,2,公交,bus,http://bus.bj.bendibao.com/zhandian/station289493.htm,Ow5fqi6DQXmgD5PGSB7QBdHF,106990,934145526
"燕莎桥南",116.46846,39.95372,9,3,2,公交,bus,http://bus.bj.bendibao.com/zhandian/station291222.htm,Ow5fqi6DQXmgD5PGSB7QBdHF,106990,934145539
"呼家楼南",116.46852,39.92367,33,1,2,公交,bus,http://bus.bj.bendibao.com/zhandian/station288917.htm,Ow5fqi6DQXmgD5PGSB7QBdHF,106990,934145557
"天桥商场",116.40411,39.88727,8,2,2,公交,bus,http://bus.bj.bendibao.com/zhandian/station289052.htm,Ow5fqi6DQXmgD5PGSB7QBdHF,106990,934145569
"育慧南路南口",116.43788,39.98322,36,1,2,公交,bus,http://bus.bj.bendibao.com/zhandian/station289970.htm,Ow5fqi6DQXmgD5PGSB7QBdHF,106990,934145591
"四平园",116.38513,39.88954,11,1,2,公交,bus,http://bus.bj.bendibao.com/zhandian/station294951.htm,Ow5fqi6DQXmgD5PGSB7QBdHF,106990,934145604
"金台夕照",116.4683,39.92296,35,2,2,公交,bus,http://bus.bj.bendibao.com/zhandian/station295232.htm,Ow5fqi6DQXmgD5PGSB7QBdHF,106990,934145620
"安苑东里",116.41524,39.98938,10,1,2,公交,bus,http://bus.bj.bendibao.com/zhandian/station289099.htm,Ow5fqi6DQXmgD5PGSB7QBdHF,106990,934145640
"牛街",116.37027,39.89456,20,3,2,公交,bus,http://bus.bj.bendibao.com/zhandian/station288944.htm,Ow5fqi6DQXmgD5PGSB7QBdHF,106990,934145659
"白云路",116.34954,39.90964,46,2,2,公交,bus,http://bus.bj.bendibao.com/zhandian/station289223.htm,Ow5fqi6DQXmgD5PGSB7QBdHF,106990,934145677
"西城三里河",116.34258,39.91969,19,2,2,公交,bus,http://bus.bj.bendibao.com/zhandian/station289017.htm,Ow5fqi6DQXmgD5PGSB7QBdHF,106990,934145692
"天坛东门",116.4273,39.89007,45,2,2,公交,bus,http://bus.bj.bendibao.com/zhandian/station295196.htm,Ow5fqi6DQXmgD5PGSB7QBdHF,106990,934145708
"南纬路",116.40085,39.88714,23,1,2,公交,bus,http://bus.bj.bendibao.com/zhandian/station289051.htm,Ow5fqi6DQXmgD5PGSB7QBdHF,106990,934145717
"牛街路口西",116.36861,39.89517,48,1,2,公交,bus,http://bus.bj.bendibao.com/zhandian/station288821.htm,Ow5fqi6DQXmgD5PGSB7QBdHF,106990,934145726
"甘家口西",116.33886,39.92882,22,2,2,公交,bus,http://bus.bj.bendibao.com/zhandian/station289370.htm,Ow5fqi6DQXmgD5PGSB7QBdHF,106990,934145743
"惠新苑",116.4239,39.98828,47,3,2,公交,bus,http://bus.bj.bendibao.com/zhandian/station289986.htm,Ow5fqi6DQXmgD5PGSB7QBdHF,106990,934145754
"呼家楼东",116.46953,39.92442,25,3,2,公交,bus,http://bus.bj.bendibao.com/zhandian/station288935.htm,Ow5fqi6DQXmgD5PGSB7QBdHF,106990,934145762
"核桃园东街",116.36328,39.89775,50,1,2,公交,bus,http://bus.bj.bendibao.com/zhandian/station292554.htm,Ow5fqi6DQXmgD5PGSB7QBdHF,106990,934145769
"奥体西门",116.40079,39.99044,24,2,2,公交,bus,http://bus.bj.bendibao.com/zhandian/station291234.htm,Ow5fqi6DQXmgD5PGSB7QBdHF,106990,934145776
"大慧寺路东口",116.3421,39.95791,49,3,2,公交,bus,http://bus.bj.bendibao.com/zhandian/station289801.htm,Ow5fqi6DQXmgD5PGSB7QBdHF,106990,934145788
"北京体育馆西",116.42904,39.89014,27,2,2,公交,bus,http://bus.bj.bendibao.com/zhandian/station288854.htm,Ow5fqi6DQXmgD5PGSB7QBdHF,106990,934145803
"南纬路西口",116.3955,39.88705,3,2,2,公交,bus,http://bus.bj.bendibao.com/zhandian/station294950.htm,Ow5fqi6DQXmgD5PGSB7QBdHF,106990,934145850
"燕莎桥北",116.46849,39.95612,26,1,2,公交,bus,http://bus.bj.bendibao.com/zhandian/station291206.htm,Ow5fqi6DQXmgD5PGSB7QBdHF,106990,934145864
"光华桥北",116.46828,39.92051,52,1,2,公交,bus,http://bus.bj.bendibao.com/zhandian/station289942.htm,Ow5fqi6DQXmgD5PGSB7QBdHF,106990,934145879
"夕照寺街北口",116.44656,39.89752,47,1,2,公交,bus,http://bus.bj.bendibao.com/zhandian/station288982.htm,Ow5fqi6DQXmgD5PGSB7QBdHF,106990,934145893
"核桃园",116.35959,39.89963,22,3,2,公交,bus,http://bus.bj.bendibao.com/zhandian/station289506.htm,Ow5fqi6DQXmgD5PGSB7QBdHF,106990,934145906
"新苑街",116.33695,39.94149,46,3,2,公交,bus,http://bus.bj.bendibao.com/zhandian/station290550.htm,Ow5fqi6DQXmgD5PGSB7QBdHF,106990,934145917
"广渠门",116.45067,39.89982,21,3,2,公交,bus,http://bus.bj.bendibao.com/zhandian/station289279.htm,Ow5fqi6DQXmgD5PGSB7QBdHF,106990,934145939
"团结湖路",116.47281,39.93486,49,2,2,公交,bus,http://bus.bj.bendibao.com/zhandian/station289401.htm,Ow5fqi6DQXmgD5PGSB7QBdHF,106990,934145954
"城铁芍药居站",116.44218,39.98264,25,3,2,公交,bus,http://bus.bj.bendibao.com/zhandian/station289969.htm,Ow5fqi6DQXmgD5PGSB7QBdHF,106990,934145963
"木樨地",116.34485,39.91301,48,2,2,公交,bus,http://bus.bj.bendibao.com/zhandian/station295140.htm,Ow5fqi6DQXmgD5PGSB7QBdHF,106990,934145977
"南横西街东口",116.37984,39.88947,24,2,2,公交,bus,http://bus.bj.bendibao.com/zhandian/station294952.htm,Ow5fqi6DQXmgD5PGSB7QBdHF,106990,934145990
"玉渊潭东门",116.34112,39.91901,51,1,2,公交,bus,http://bus.bj.bendibao.com/zhandian/station289951.htm,Ow5fqi6DQXmgD5PGSB7QBdHF,106990,934146009
"真武庙三里",116.34818,39.90877,27,1,2,公交,bus,http://bus.bj.bendibao.com/zhandian/station289724.htm,Ow5fqi6DQXmgD5PGSB7QBdHF,106990,934146023
"西坝河路北口",116.44937,39.97884,50,3,2,公交,bus,http://bus.bj.bendibao.com/zhandian/station290003.htm,Ow5fqi6DQXmgD5PGSB7QBdHF,106990,934146035
"安苑路",116.42287,39.98965,26,2,2,公交,bus,http://bus.bj.bendibao.com/zhandian/station289100.htm,Ow5fqi6DQXmgD5PGSB7QBdHF,106990,934146050
"光华桥南",116.46832,39.9184,3,2,2,公交,bus,http://bus.bj.bendibao.com/zhandian/station288918.htm,Ow5fqi6DQXmgD5PGSB7QBdHF,106990,934146062
"坝河",116.45489,39.97494,29,2,2,公交,bus,http://bus.bj.bendibao.com/zhandian/station290039.htm,Ow5fqi6DQXmgD5PGSB7QBdHF,106990,934146077
"燕莎桥东",116.47007,39.95541,52,3,2,公交,bus,http://bus.bj.bendibao.com/zhandian/station291199.htm,Ow5fqi6DQXmgD5PGSB7QBdHF,106990,934146091
"团结湖路北口",116.47365,39.93834,28,2,2,公交,bus,http://bus.bj.bendibao.com/zhandian/station289321.htm,Ow5fqi6DQXmgD5PGSB7QBdHF,106990,934146106
"祁家豁子(健翔桥南)",116.38636,39.9898,38,3,2,公交,bus,http://bus.bj.bendibao.com/zhandian/station292582.htm,Ow5fqi6DQXmgD5PGSB7QBdHF,106990,934146124
"大慧寺",116.34031,39.95784,14,1,2,公交,bus,http://bus.bj.bendibao.com/zhandian/station289220.htm,Ow5fqi6DQXmgD5PGSB7QBdHF,106990,934146133
"三元桥(地铁)",116.46349,39.96671,37,3,2,公交,bus,http://bus.bj.bendibao.com/zhandian/station290016.htm,Ow5fqi6DQXmgD5PGSB7QBdHF,106990,934146156
"木樨地东",116.34408,39.91305,13,3,2,公交,bus,http://bus.bj.bendibao.com/zhandian/station289473.htm,Ow5fqi6DQXmgD5PGSB7QBdHF,106990,934146171
"教子胡同南口",116.37763,39.88948,40,2,2,公交,bus,http://bus.bj.bendibao.com/zhandian/station294953.htm,Ow5fqi6DQXmgD5PGSB7QBdHF,106990,934146189
"团结湖公园",116.47364,39.93197,16,3,2,公交,bus,http://bus.bj.bendibao.com/zhandian/station289954.htm,Ow5fqi6DQXmgD5PGSB7QBdHF,106990,934146207
"大北窑西",116.46646,39.91411,39,1,2,公交,bus,http://bus.bj.bendibao.com/zhandian/station288796.htm,Ow5fqi6DQXmgD5PGSB7QBdHF,106990,934146223
"木樨地北",116.34197,39.91569,15,2,2,公交,bus,http://bus.bj.bendibao.com/zhandian/station289129.htm,Ow5fqi6DQXmgD5PGSB7QBdHF,106990,934146247
"国贸",116.46661,39.91418,42,3,2,公交,bus,http://bus.bj.bendibao.com/zhandian/station295146.htm,Ow5fqi6DQXmgD5PGSB7QBdHF,106990,934146264
"陶然桥东",116.410776724,39.8853017591,18,1,2,公交,bus,http://bus.bj.bendibao.com/zhandian/station289126.htm,Ow5fqi6DQXmgD5PGSB7QBdHF,106990,934146282
"地铁芍药居站",116.44524,39.9823,41,3,2,公交,bus,http://bus.bj.bendibao.com/zhandian/station291842.htm,Ow5fqi6DQXmgD5PGSB7QBdHF,106990,934146293
"天坛体育场",116.42733,39.88784,17,3,2,公交,bus,http://bus.bj.bendibao.com/zhandian/station289195.htm,Ow5fqi6DQXmgD5PGSB7QBdHF,106990,934146308
"对外经贸大学东门",116.4375,39.98606,45,2,2,公交,bus,http://bus.bj.bendibao.com/zhandian/station289971.htm,Ow5fqi6DQXmgD5PGSB7QBdHF,106990,934146337
"白石桥东",116.33528,39.94413,20,1,2,公交,bus,http://bus.bj.bendibao.com/zhandian/station289237.htm,Ow5fqi6DQXmgD5PGSB7QBdHF,106990,934146370
"白广路北口",116.36543,39.89414,44,2,2,公交,bus,http://bus.bj.bendibao.com/zhandian/station289113.htm,Ow5fqi6DQXmgD5PGSB7QBdHF,106990,934146390
"惠新里",116.42715,39.98961,19,1,2,公交,bus,http://bus.bj.bendibao.com/zhandian/station289105.htm,Ow5fqi6DQXmgD5PGSB7QBdHF,106990,934146416
"广安门内",116.36348,39.89519,24,1,2,公交,bus,http://bus.bj.bendibao.com/zhandian/station288820.htm,Ow5fqi6DQXmgD5PGSB7QBdHF,106990,934146431
"大柳树北站",116.34189,39.96227,49,3,2,公交,bus,http://bus.bj.bendibao.com/zhandian/station289068.htm,Ow5fqi6DQXmgD5PGSB7QBdHF,106990,934146462
"团结湖",116.47474,39.9394,23,2,2,公交,bus,http://bus.bj.bendibao.com/zhandian/station289322.htm,Ow5fqi6DQXmgD5PGSB7QBdHF,106990,934146475
"北线阁",116.35967,39.8974,48,1,2,公交,bus,http://bus.bj.bendibao.com/zhandian/station289505.htm,Ow5fqi6DQXmgD5PGSB7QBdHF,106990,934146499
"奥体中心",116.40021,39.99244,26,2,2,公交,bus,http://bus.bj.bendibao.com/zhandian/station295215.htm,Ow5fqi6DQXmgD5PGSB7QBdHF,106990,934146514
"塔院小区南门",116.36364,39.98228,51,2,2,公交,bus,http://bus.bj.bendibao.com/zhandian/station289137.htm,Ow5fqi6DQXmgD5PGSB7QBdHF,106990,934146524
"城铁大钟寺站",116.35137,39.97356,25,1,2,公交,bus,http://bus.bj.bendibao.com/zhandian/station289750.htm,Ow5fqi6DQXmgD5PGSB7QBdHF,106990,934146535
"三元庵",116.46824,39.96165,50,1,2,公交,bus,http://bus.bj.bendibao.com/zhandian/station291221.htm,Ow5fqi6DQXmgD5PGSB7QBdHF,106990,934146551
"白云观",116.34883,39.90598,28,2,2,公交,bus,http://bus.bj.bendibao.com/zhandian/station289224.htm,Ow5fqi6DQXmgD5PGSB7QBdHF,106990,934146567
"曙光里",116.45883,39.9732,4,3,2,公交,bus,http://bus.bj.bendibao.com/zhandian/station290040.htm,Ow5fqi6DQXmgD5PGSB7QBdHF,106990,934146577
"马圈",116.45334,39.89944,27,3,2,公交,bus,http://bus.bj.bendibao.com/zhandian/station289161.htm,Ow5fqi6DQXmgD5PGSB7QBdHF,106990,934146587
"大北窑北",116.46827,39.91507,3,3,2,公交,bus,http://bus.bj.bendibao.com/zhandian/station289941.htm,Ow5fqi6DQXmgD5PGSB7QBdHF,106990,934146601
"公安大学",116.34586,39.90876,30,2,2,公交,bus,http://bus.bj.bendibao.com/zhandian/station289723.htm,Ow5fqi6DQXmgD5PGSB7QBdHF,106990,934146610
"对外经贸大学",116.42929,39.98964,6,3,2,公交,bus,http://bus.bj.bendibao.com/zhandian/station289104.htm,Ow5fqi6DQXmgD5PGSB7QBdHF,106990,934146617
"天宁寺桥西",116.35109,39.90324,29,3,2,公交,bus,http://bus.bj.bendibao.com/zhandian/station288927.htm,Ow5fqi6DQXmgD5PGSB7QBdHF,106990,934146629
"大北窑",116.46788,39.91406,5,2,2,公交,bus,http://bus.bj.bendibao.com/zhandian/station289940.htm,Ow5fqi6DQXmgD5PGSB7QBdHF,106990,934146637
"先农坛",116.40669,39.88419,15,1,2,公交,bus,http://bus.bj.bendibao.com/zhandian/station288876.htm,Ow5fqi6DQXmgD5PGSB7QBdHF,106990,934146643
"太平街",116.39395,39.88475,40,1,2,公交,bus,http://bus.bj.bendibao.com/zhandian/station289030.htm,Ow5fqi6DQXmgD5PGSB7QBdHF,106990,934146659
"北京体育馆",116.43751,39.89019,14,2,2,公交,bus,http://bus.bj.bendibao.com/zhandian/station288853.htm,Ow5fqi6DQXmgD5PGSB7QBdHF,106990,934146677
"大慧寺路西口",116.33823,39.95772,39,3,2,公交,bus,http://bus.bj.bendibao.com/zhandian/station289802.htm,Ow5fqi6DQXmgD5PGSB7QBdHF,106990,934146689
"广安门",116.36149,39.89515,17,1,2,公交,bus,http://bus.bj.bendibao.com/zhandian/station289684.htm,Ow5fqi6DQXmgD5PGSB7QBdHF,106990,934146699
"学知桥南",116.35946,39.98087,43,1,2,公交,bus,http://bus.bj.bendibao.com/zhandian/station290147.htm,Ow5fqi6DQXmgD5PGSB7QBdHF,106990,934146713
"学知桥东",116.3617,39.98226,16,3,2,公交,bus,http://bus.bj.bendibao.com/zhandian/station292501.htm,Ow5fqi6DQXmgD5PGSB7QBdHF,106990,934146725
"龙潭路西口",116.42949,39.8871,42,2,2,公交,bus,http://bus.bj.bendibao.com/zhandian/station292576.htm,Ow5fqi6DQXmgD5PGSB7QBdHF,106990,934146744
"太阳宫",116.45408,39.97837,19,2,2,公交,bus,http://bus.bj.bendibao.com/zhandian/station295230.htm,Ow5fqi6DQXmgD5PGSB7QBdHF,106990,934146754
"北辰西桥南",116.39392,39.99297,45,3,2,公交,bus,http://bus.bj.bendibao.com/zhandian/station289751.htm,Ow5fqi6DQXmgD5PGSB7QBdHF,106990,934146764
"夏家园",116.45409,39.97844,18,2,2,公交,bus,http://bus.bj.bendibao.com/zhandian/station290002.htm,Ow5fqi6DQXmgD5PGSB7QBdHF,106990,934146775
"牛街礼拜寺",116.37028,39.89044,44,1,2,公交,bus,http://bus.bj.bendibao.com/zhandian/station288945.htm,Ow5fqi6DQXmgD5PGSB7QBdHF,106990,934146784
"四道口东",116.33326,39.93817,22,2,2,公交,bus,http://bus.bj.bendibao.com/zhandian/station289949.htm,Ow5fqi6DQXmgD5PGSB7QBdHF,106990,934146796
"陶然亭公园北门",116.38805,39.88509,47,1,2,公交,bus,http://bus.bj.bendibao.com/zhandian/station289382.htm,Ow5fqi6DQXmgD5PGSB7QBdHF,106990,934146805
"西土城",116.3605,39.98203,20,3,2,公交,bus,http://bus.bj.bendibao.com/zhandian/station295227.htm,Ow5fqi6DQXmgD5PGSB7QBdHF,106990,934146819
"白堆子口东",116.33377,39.92898,46,3,2,公交,bus,http://bus.bj.bendibao.com/zhandian/station289366.htm,Ow5fqi6DQXmgD5PGSB7QBdHF,106990,934146825
"自新路口北",116.38085,39.88621,41,2,2,公交,bus,http://bus.bj.bendibao.com/zhandian/station289487.htm,Ow5fqi6DQXmgD5PGSB7QBdHF,106990,934146839
"塔院",116.37087,39.98771,17,3,2,公交,bus,http://bus.bj.bendibao.com/zhandian/station289430.htm,Ow5fqi6DQXmgD5PGSB7QBdHF,106990,934146850
"曙光里小区",116.46155,39.97302,40,2,2,公交,bus,http://bus.bj.bendibao.com/zhandian/station291966.htm,Ow5fqi6DQXmgD5PGSB7QBdHF,106990,934146865
"通惠河北路(北京电视台新址)",116.46688,39.91016,16,1,2,公交,bus,http://bus.bj.bendibao.com/zhandian/station300153.htm,Ow5fqi6DQXmgD5PGSB7QBdHF,106990,934146879
"广安门北",116.3553,39.89805,43,2,2,公交,bus,http://bus.bj.bendibao.com/zhandian/station289114.htm,Ow5fqi6DQXmgD5PGSB7QBdHF,106990,934146894
"四道口北",116.33241,39.93959,19,1,2,公交,bus,http://bus.bj.bendibao.com/zhandian/station289236.htm,Ow5fqi6DQXmgD5PGSB7QBdHF,106990,934146901
"四道口南",116.33241,39.93717,42,1,2,公交,bus,http://bus.bj.bendibao.com/zhandian/station289551.htm,Ow5fqi6DQXmgD5PGSB7QBdHF,106990,934146908
"夕照寺",116.44683,39.89318,18,3,2,公交,bus,http://bus.bj.bendibao.com/zhandian/station288983.htm,Ow5fqi6DQXmgD5PGSB7QBdHF,106990,934146922
"学知桥北",116.3607,39.983,46,3,2,公交,bus,http://bus.bj.bendibao.com/zhandian/station291030.htm,Ow5fqi6DQXmgD5PGSB7QBdHF,106990,934146933
"木樨地西",116.33998,39.91334,21,2,2,公交,bus,http://bus.bj.bendibao.com/zhandian/station288785.htm,Ow5fqi6DQXmgD5PGSB7QBdHF,106990,934146942
"亚运村",116.40849,39.99453,45,2,2,公交,bus,http://bus.bj.bendibao.com/zhandian/station291112.htm,Ow5fqi6DQXmgD5PGSB7QBdHF,106990,934146949
"光华中路",116.47302,39.91923,20,1,2,公交,bus,http://bus.bj.bendibao.com/zhandian/station290059.htm,Ow5fqi6DQXmgD5PGSB7QBdHF,106990,934146956
"白石桥南",116.33233,39.94407,48,3,2,公交,bus,http://bus.bj.bendibao.com/zhandian/station289805.htm,Ow5fqi6DQXmgD5PGSB7QBdHF,106990,934146974
"北辰桥西",116.39462,39.9941,23,2,2,公交,bus,http://bus.bj.bendibao.com/zhandian/station291113.htm,Ow5fqi6DQXmgD5PGSB7QBdHF,106990,934146986
"水碓路口南",116.47619,39.92779,47,2,2,公交,bus,http://bus.bj.bendibao.com/zhandian/station288915.htm,Ow5fqi6DQXmgD5PGSB7QBdHF,106990,934146994
"大北窑南",116.46862,39.91159,22,1,2,公交,bus,http://bus.bj.bendibao.com/zhandian/station289260.htm,Ow5fqi6DQXmgD5PGSB7QBdHF,106990,934147009
"学知桥西",116.35874,39.98212,33,3,2,公交,bus,http://bus.bj.bendibao.com/zhandian/station290148.htm,Ow5fqi6DQXmgD5PGSB7QBdHF,106990,934147018
"朝阳体育馆",116.47776,39.9361,8,2,2,公交,bus,http://bus.bj.bendibao.com/zhandian/station289320.htm,Ow5fqi6DQXmgD5PGSB7QBdHF,106990,934147030
"广安门内",116.35843,39.89514,31,2,2,公交,bus,http://bd.bendibao.com/bus/zhandian/station334395.htm,Ow5fqi6DQXmgD5PGSB7QBdHF,106990,934147044
"首体南路南口",116.33238,39.9307,7,3,2,公交,bus,http://bus.bj.bendibao.com/zhandian/station289552.htm,Ow5fqi6DQXmgD5PGSB7QBdHF,106990,934147050
"白石桥北",116.33215,39.94557,35,3,2,公交,bus,http://bus.bj.bendibao.com/zhandian/station289846.htm,Ow5fqi6DQXmgD5PGSB7QBdHF,106990,934147060
"小庄路口西",116.47485,39.92244,10,3,2,公交,bus,http://bus.bj.bendibao.com/zhandian/station294843.htm,Ow5fqi6DQXmgD5PGSB7QBdHF,106990,934147070
"芍药居东",116.44395,39.98622,34,3,2,公交,bus,http://bus.bj.bendibao.com/zhandian/station289968.htm,Ow5fqi6DQXmgD5PGSB7QBdHF,106990,934147082
"中国现代文学馆",116.43625,39.9895,9,1,2,公交,bus,http://bus.bj.bendibao.com/zhandian/station289966.htm,Ow5fqi6DQXmgD5PGSB7QBdHF,106990,934147093
"学知桥(北京联合大学学院路校区)",116.36033,39.98341,37,1,2,公交,bus,http://bus.bj.bendibao.com/zhandian/station295107.htm,Ow5fqi6DQXmgD5PGSB7QBdHF,106990,934147105
"三元桥东站",116.46632,39.96917,12,2,2,公交,bus,http://bus.bj.bendibao.com/zhandian/station290017.htm,Ow5fqi6DQXmgD5PGSB7QBdHF,106990,934147113
"裘马都小区",116.46516,39.97058,36,3,2,公交,bus,http://bus.bj.bendibao.com/zhandian/station291967.htm,Ow5fqi6DQXmgD5PGSB7QBdHF,106990,934147126
"牛街西里",116.36915,39.88934,11,2,2,公交,bus,http://bus.bj.bendibao.com/zhandian/station294954.htm,Ow5fqi6DQXmgD5PGSB7QBdHF,106990,934147136
"皂君东里",116.34139,39.96739,39,3,2,公交,bus,http://bus.bj.bendibao.com/zhandian/station289800.htm,Ow5fqi6DQXmgD5PGSB7QBdHF,106990,934147147
"南线阁",116.35995,39.89371,15,2,2,公交,bus,http://bus.bj.bendibao.com/zhandian/station289504.htm,Ow5fqi6DQXmgD5PGSB7QBdHF,106990,934147165
"白云桥西",116.34745,39.90309,38,1,2,公交,bus,http://bus.bj.bendibao.com/zhandian/station288928.htm,Ow5fqi6DQXmgD5PGSB7QBdHF,106990,934147177
"健翔桥东",116.38798,39.99384,14,1,2,公交,bus,http://bus.bj.bendibao.com/zhandian/station291114.htm,Ow5fqi6DQXmgD5PGSB7QBdHF,106990,934147187
"增光路东口",116.33137,39.93388,9,2,2,公交,bus,http://bus.bj.bendibao.com/zhandian/station289627.htm,Ow5fqi6DQXmgD5PGSB7QBdHF,106990,934147199
"自新路口东",116.38158,39.88472,34,2,2,公交,bus,http://bus.bj.bendibao.com/zhandian/station289381.htm,Ow5fqi6DQXmgD5PGSB7QBdHF,106990,934147218
"北医三院",116.36711,39.98748,8,2,2,公交,bus,http://bus.bj.bendibao.com/zhandian/station290535.htm,Ow5fqi6DQXmgD5PGSB7QBdHF,106990,934147230
"大北窑东",116.47135,39.91392,33,1,2,公交,bus,http://bus.bj.bendibao.com/zhandian/station288797.htm,Ow5fqi6DQXmgD5PGSB7QBdHF,106990,934147242
"惠新西街北口",116.42371,39.99366,11,1,2,公交,bus,http://bus.bj.bendibao.com/zhandian/station289101.htm,Ow5fqi6DQXmgD5PGSB7QBdHF,106990,934147251
"安慧桥东",116.41713,39.99477,37,2,2,公交,bus,http://bus.bj.bendibao.com/zhandian/station290090.htm,Ow5fqi6DQXmgD5PGSB7QBdHF,106990,934147261
"牛街南口",116.37039,39.8882,10,1,2,公交,bus,http://bus.bj.bendibao.com/zhandian/station288946.htm,Ow5fqi6DQXmgD5PGSB7QBdHF,106990,934147278
"呼家楼北街",116.47768,39.92891,36,3,2,公交,bus,http://bus.bj.bendibao.com/zhandian/station289660.htm,Ow5fqi6DQXmgD5PGSB7QBdHF,106990,934147292
"白石桥西",116.33117,39.94476,13,2,2,公交,bus,http://bus.bj.bendibao.com/zhandian/station290054.htm,Ow5fqi6DQXmgD5PGSB7QBdHF,106990,934147318
"太阳星城",116.46135,39.97543,39,1,2,公交,bus,http://bus.bj.bendibao.com/zhandian/station291962.htm,Ow5fqi6DQXmgD5PGSB7QBdHF,106990,934147333
"陶然亭",116.38092,39.88463,12,2,2,公交,bus,http://bus.bj.bendibao.com/zhandian/station295176.htm,Ow5fqi6DQXmgD5PGSB7QBdHF,106990,934147348
"国家图书馆",116.33175,39.94875,38,3,2,公交,bus,http://bus.bj.bendibao.com/zhandian/station289804.htm,Ow5fqi6DQXmgD5PGSB7QBdHF,106990,934147364
"志新桥南",116.376,39.99134,15,3,2,公交,bus,http://bus.bj.bendibao.com/zhandian/station289057.htm,Ow5fqi6DQXmgD5PGSB7QBdHF,106990,934147390
"小庄路口北",116.47624,39.92309,41,1,2,公交,bus,http://bus.bj.bendibao.com/zhandian/station288916.htm,Ow5fqi6DQXmgD5PGSB7QBdHF,106990,934147406
"地铁三元桥站",116.46698,39.9699,14,3,2,公交,bus,http://bus.bj.bendibao.com/zhandian/station291968.htm,Ow5fqi6DQXmgD5PGSB7QBdHF,106990,934147431
"大钟寺东",116.34583,39.97375,40,3,2,公交,bus,http://bus.bj.bendibao.com/zhandian/station289825.htm,Ow5fqi6DQXmgD5PGSB7QBdHF,106990,934147452
"永定门内",116.40681,39.88127,50,3,2,公交,bus,http://bus.bj.bendibao.com/zhandian/station288805.htm,Ow5fqi6DQXmgD5PGSB7QBdHF,106990,934147466
"自新路口西",116.37988,39.88446,26,3,2,公交,bus,http://bus.bj.bendibao.com/zhandian/station292294.htm,Ow5fqi6DQXmgD5PGSB7QBdHF,106990,934147489
"北辰西桥北",116.39393,39.99548,49,1,2,公交,bus,http://bus.bj.bendibao.com/zhandian/station289752.htm,Ow5fqi6DQXmgD5PGSB7QBdHF,106990,934147502
"白堆子口西",116.331,39.92931,25,2,2,公交,bus,http://bus.bj.bendibao.com/zhandian/station289847.htm,Ow5fqi6DQXmgD5PGSB7QBdHF,106990,934147518
"健翔桥西",116.38227,39.99358,52,1,2,公交,bus,http://bus.bj.bendibao.com/zhandian/station291115.htm,Ow5fqi6DQXmgD5PGSB7QBdHF,106990,934147531
"光明楼",116.44589,39.89027,28,1,2,公交,bus,http://bus.bj.bendibao.com/zhandian/station288903.htm,Ow5fqi6DQXmgD5PGSB7QBdHF,106990,934147546
"小庄路口东",116.47667,39.92199,51,1,2,公交,bus,http://bus.bj.bendibao.com/zhandian/station289859.htm,Ow5fqi6DQXmgD5PGSB7QBdHF,106990,934147554
"大钟寺",116.3445,39.97325,27,2,2,公交,bus,http://bus.bj.bendibao.com/zhandian/station289815.htm,Ow5fqi6DQXmgD5PGSB7QBdHF,106990,934147572
"麦子店西街",116.47195,39.96498,4,2,2,公交,bus,http://bus.bj.bendibao.com/zhandian/station291220.htm,Ow5fqi6DQXmgD5PGSB7QBdHF,106990,934147581
